%time,field.header.seq,field.header.stamp,field.header.frame_id,field.child_frame_id,field.pose.pose.position.x,field.pose.pose.position.y,field.pose.pose.position.z,field.pose.pose.orientation.x,field.pose.pose.orientation.y,field.pose.pose.orientation.z,field.pose.pose.orientation.w,field.pose.covariance0,field.pose.covariance1,field.pose.covariance2,field.pose.covariance3,field.pose.covariance4,field.pose.covariance5,field.pose.covariance6,field.pose.covariance7,field.pose.covariance8,field.pose.covariance9,field.pose.covariance10,field.pose.covariance11,field.pose.covariance12,field.pose.covariance13,field.pose.covariance14,field.pose.covariance15,field.pose.covariance16,field.pose.covariance17,field.pose.covariance18,field.pose.covariance19,field.pose.covariance20,field.pose.covariance21,field.pose.covariance22,field.pose.covariance23,field.pose.covariance24,field.pose.covariance25,field.pose.covariance26,field.pose.covariance27,field.pose.covariance28,field.pose.covariance29,field.pose.covariance30,field.pose.covariance31,field.pose.covariance32,field.pose.covariance33,field.pose.covariance34,field.pose.covariance35,field.twist.twist.linear.x,field.twist.twist.linear.y,field.twist.twist.linear.z,field.twist.twist.angular.x,field.twist.twist.angular.y,field.twist.twist.angular.z,field.twist.covariance0,field.twist.covariance1,field.twist.covariance2,field.twist.covariance3,field.twist.covariance4,field.twist.covariance5,field.twist.covariance6,field.twist.covariance7,field.twist.covariance8,field.twist.covariance9,field.twist.covariance10,field.twist.covariance11,field.twist.covariance12,field.twist.covariance13,field.twist.covariance14,field.twist.covariance15,field.twist.covariance16,field.twist.covariance17,field.twist.covariance18,field.twist.covariance19,field.twist.covariance20,field.twist.covariance21,field.twist.covariance22,field.twist.covariance23,field.twist.covariance24,field.twist.covariance25,field.twist.covariance26,field.twist.covariance27,field.twist.covariance28,field.twist.covariance29,field.twist.covariance30,field.twist.covariance31,field.twist.covariance32,field.twist.covariance33,field.twist.covariance34,field.twist.covariance35
1656060245805294405,571,1656060245803962469,odom,base_link_33,-0.6822642815277504,-0.44570700046097045,-1.0390126259363086e-14,2.6056988296655588e-15,4.1845881477662217e-16,-0.9508018089771832,0.3097998064003849,0.003342609488049471,-8.735893449940003e-12,3.693309534312592e-20,-1.4905108091962992e-25,-3.4974604307914744e-24,3.438649818328777e-09,-8.735893449516487e-12,0.0033426094950383353,1.7705538882685083e-20,-3.2710574735539407e-25,-3.2879806204797935e-24,-5.079286842563855e-09,3.6933192278353956e-20,1.770554554698201e-20,0.004001761159824882,-2.16585333365828e-10,-6.157217732399065e-09,1.0618446437509325e-24,-1.5551342945515343e-25,-2.237081707862656e-25,-2.165853333658281e-10,0.0020019031649283515,-7.784660640425123e-19,3.114185917029825e-20,-3.394062854222346e-24,-3.2879806204797935e-24,-6.157217732399065e-09,-7.784660640425125e-19,0.0020019031649283234,-8.996870906471844e-21,3.4386498183287775e-09,-5.0792868425638555e-09,1.037610836742543e-24,3.1141860785885385e-20,-8.996845057080786e-21,0.004007675060693259,0.04624282239092281,-0.006219061735379228,-4.503342143635791e-15,-2.845830224205113e-15,-1.7095755503422415e-15,-1.4740435425919713,0.0034042591010184247,6.624515409492266e-18,3.660314600225495e-28,-2.703446234949161e-27,-3.314666439880685e-27,-1.3546065966715031e-20,6.6245154078766785e-18,0.003404259101018701,-7.099748146989106e-28,5.545565032601119e-28,5.352564932414444e-28,-6.945910117868955e-17,3.534096855390133e-28,-7.099748146989106e-28,0.0026685097487443824,-2.98159953307749e-19,-1.3635210764074727e-17,2.5849394142282115e-26,-2.703470886864204e-27,5.545318513568237e-28,-2.981599533077521e-19,0.00066862101345975,-7.052759665478018e-21,2.242491463509112e-25,-3.314666439880685e-27,5.352564932407097e-28,-1.3635210764074733e-17,-7.0527596654811e-21,0.0006686210134597498,2.0474343191800864e-25,-1.3546065966665728e-20,-6.945910117868955e-17,2.5849394142282115e-26,2.3717394202966543e-25,2.0474343191876096e-25,0.0026660480672677607
1656060245872420235,572,1656060245870628357,odom,base_link_33,-0.6866218940922408,-0.44879891801792837,-1.2836953722228372e-15,-5.470805007754996e-16,-3.1839584575595807e-16,-0.9806361668701876,0.19583847483614042,0.006675856801515077,-3.192655676759507e-08,7.812555449440836e-20,1.632084770445133e-20,-1.1677752052150485e-19,8.639351163991521e-06,-3.192655676762175e-08,0.006675893108231808,3.8870871345091876e-20,1.5582871708453047e-20,-6.659909140267052e-20,-1.4851181582563461e-05,7.812555449440836e-20,3.8870871345091876e-20,0.008012720380242134,1.138427638028431e-06,-8.633892010933153e-06,-5.7846097329025695e-24,1.8014913599009236e-20,1.5582871708453047e-20,1.138427638028431e-06,0.004059751729537705,-4.64828186157103e-12,1.0541581139011838e-20,-1.1677752052150485e-19,-6.659909140257191e-20,-8.633892010933153e-06,-4.64828186157103e-12,0.00405975172512019,-1.138095593926111e-21,8.639351163991521e-06,-1.4851181582563468e-05,-5.836308521187134e-24,1.0541581139011838e-20,-1.139749955151217e-21,0.008007635680714158,0.06532118546965648,-0.0022405122041391223,-3.1086244689504383e-15,-2.2726975824322756e-15,7.014947669850811e-16,-2.50511914290837,0.003405250278532744,-1.0127444989991477e-17,1.5541948228047122e-24,-1.9408673457306942e-26,2.1777177374935026e-26,2.46034029972687e-18,-1.0127444990395374e-17,0.0034052502785331153,-4.55930048781536e-25,-4.385075445789087e-28,7.413807103722618e-29,5.749320933838314e-20,1.5541948228047122e-24,-4.557217895025576e-25,0.005338701601493396,-7.854563375563905e-14,-2.232951344423348e-12,5.01478246360273e-24,-1.779308632336729e-26,-3.3773056393692447e-28,-7.854563375563905e-14,0.0013343930184415121,-1.2817903660193385e-16,2.2620807355238233e-24,2.177737459016133e-26,7.433528626353143e-29,-2.232951344423348e-12,-1.2817903660193306e-16,0.0013343930184378724,-5.4028078778879844e-24,2.460339782739012e-18,5.749362292868942e-20,5.86781247029804e-24,2.262079946662918e-24,-4.9892175715994335e-24,0.0026668353920419104
1656060245938260089,573,1656060245937293291,odom,base_link_33,-0.6895350631384645,-0.45351999401646026,-1.215499055573499e-15,-4.1877333052922843e-16,-3.09901785398857e-15,-0.9647428971409626,0.2631941154662507,0.0033427340764069385,-2.3668819138183682e-11,5.261320252441179e-21,1.4309238956894262e-24,2.611971230905216e-24,6.340770788752725e-09,-2.3668819137548407e-11,0.003342734084160641,-4.6239218123232735e-20,-2.5467844905726564e-24,4.696584569028413e-24,-7.463875682848868e-09,5.261113457288041e-21,-4.6239218123232735e-20,0.004001904241338465,1.672038106602377e-09,-9.65040384235779e-09,-4.859383176161433e-25,1.211204045477019e-24,-2.5467844905726564e-24,1.672038106602377e-09,0.002001958300943841,-1.124323367540477e-18,-1.6268994257250103e-20,2.5990465338310657e-24,4.683659872342458e-24,-9.65040384235779e-09,-1.1243299849853776e-18,0.00200195830094384,-3.3047206956918233e-20,6.340770788752726e-09,-7.463875682848868e-09,-4.858878305182091e-25,-1.626896840785596e-20,-3.3047205341324936e-20,0.004007822411002375,0.07391831211407407,0.009989644253039387,-4.017619570362285e-15,-1.3504292541725554e-16,-2.835998211938165e-16,-0.5719228452580865,0.0034053066636696603,1.881755682886571e-15,2.524354896707238e-29,3.0731870797259703e-27,2.5623700142199402e-27,-3.007313762173395e-15,1.8817556828809165e-15,0.00340530666368578,1.3789288623263286e-27,7.882690256334139e-28,7.77811683671505e-28,-2.5469554282644608e-14,2.524354896707238e-29,1.3284417643921839e-27,0.0026686051178623025,3.065040644768684e-21,-2.32627974014371e-20,7.270142102516845e-26,3.073162427822682e-27,8.38756123569028e-28,3.065040644768684e-21,0.0006686448638903617,5.1375684456784634e-23,-1.8443794925958637e-25,2.6633195581849416e-27,7.777870317682169e-28,-2.326279740144018e-20,5.137568444445868e-23,0.0006686448638903616,-1.9838747621079296e-25,-3.007313762173395e-15,-2.5469554282489512e-14,7.916376956073898e-26,-1.8443794925883405e-25,-1.9192512767447011e-25,0.002666883544802757
1656060246005453677,574,1656060246003968000,odom,base_link_33,-0.6963116477636504,-0.45432163031364325,2.1503523787991252e-15,-2.0714039210492077e-15,5.8155117238622e-16,-0.9795370951023209,0.20126370591466972,0.0033432244797552578,-1.578016956634208e-11,-3.198831182717014e-20,4.533690992884508e-25,-9.292852634988246e-25,3.1586633550113763e-09,-1.5780169566345388e-11,0.003343224524662582,3.3961737778729354e-21,-1.769665542167739e-24,-2.5650028869055594e-24,-9.987783942852898e-09,-3.198831182717014e-20,3.3961737778729354e-21,0.0040024907604140824,-1.041624911610889e-09,-1.0461911206472018e-08,3.416966788182917e-25,2.2072455201994884e-25,-1.8730631187367732e-24,-1.0416249116108893e-09,0.0020022647986193166,-1.396420804496719e-18,-2.100219029484877e-20,-7.224901103598153e-25,-2.5650028869055594e-24,-1.0461911206472018e-08,-1.396420804496719e-18,0.002002264798619312,1.4394950768366e-20,3.1586633550113767e-09,-9.987783942852898e-09,3.417219223672588e-25,-2.1002189487055202e-20,1.439495076836523e-20,0.004008410197923839,0.07834242092121713,-0.015044144501928258,1.3374717999781183e-15,1.9199631933288494e-15,-7.229546146198144e-16,-1.3480952617246658,0.0034055477479683237,1.6814587234343877e-15,-1.7670484276950664e-27,1.4650811666295702e-27,1.547775686661923e-28,-1.168635749367892e-20,1.6814587234343877e-15,0.003405547747983087,7.068193710780266e-28,2.552921488147042e-28,-4.745304752836109e-28,-4.904085196122666e-17,-1.7607375404532983e-27,7.068193710780266e-28,0.0026689961265381,1.0236186237505957e-18,-5.9079593102159784e-18,3.166550782429559e-25,1.3640946448096366e-27,2.552921488147042e-28,1.0236186237506021e-18,0.0006687426095088383,1.0491834802004272e-20,-1.0836909171886602e-25,2.557486830458361e-28,-4.745273937960672e-28,-5.9079593102159784e-18,1.0491834802004272e-20,0.0006687426095088376,-1.9185567512397257e-27,-1.1686771083960545e-20,-4.904085206462424e-17,3.166550782429559e-25,-1.0836909171886602e-25,2.393083739104239e-26,0.0026670594634999687
1656060246072116567,575,1656060246070666075,odom,base_link_33,-0.7037644077609002,-0.45954024395723536,-2.6749435999562365e-15,-2.0892688179515573e-15,1.241762361125777e-15,-0.986395773782898,0.1643878872156886,0.0066781040368461345,-8.278923284823932e-08,-2.5185995291014587e-19,-1.6756040135113555e-19,-1.311123617439035e-19,1.2834428592015285e-05,-8.278923284823847e-08,0.006678230343391064,-1.0098220918047362e-19,-7.855683750865264e-20,-5.2264019448022045e-20,-2.593003814583886e-05,-2.5188642268974756e-19,-1.0099544407027447e-19,0.00801546243232952,1.8696332721896457e-06,-1.4392763444727147e-05,9.27104676784287e-24,-1.6756040135093833e-19,-7.178057392992798e-20,1.8696332721896457e-06,0.004018885786225251,-2.613217052722478e-12,-7.394792343078882e-21,-1.311123617441007e-19,-4.591127234361479e-20,-1.4392763444727149e-05,-2.613217052722478e-12,0.004018885777710703,4.105284545130346e-21,1.2834428592015337e-05,-2.593003814583886e-05,9.27104676784287e-24,-7.39476649368474e-21,4.105284545228954e-21,0.008010303239376786,0.1099569188654641,0.0052056706117866725,-3.885780586188048e-15,2.3417764226137153e-15,7.114971300503778e-16,-1.236419587265118,0.0034064277542996766,1.6561469375283241e-15,-1.0921369025114194e-24,9.821239034112168e-27,1.2697703996998175e-27,5.964549577426721e-18,1.6561469374750097e-15,0.0034064277543135292,7.502887623993252e-25,-9.787746686203797e-27,-9.772159753292776e-28,2.596580666671706e-18,-1.0921369025114194e-24,7.51954836631152e-25,0.005340480547240329,-3.782012903294555e-13,-3.7986028120108204e-12,1.4346413748966574e-24,9.821239034112168e-27,-9.787746686192042e-27,-3.782012903294555e-13,0.0013348364760524998,-1.0494430986206343e-15,-7.354624706521652e-25,4.619768327770113e-28,-1.7850095422755937e-27,-3.7986028120108204e-12,-1.0494430986206335e-15,0.0013348364760420635,-3.593511132655159e-25,5.964549680824295e-18,2.596580653747009e-18,1.4346413748966574e-24,-7.354624706521652e-25,-3.0765232498095167e-25,0.00266772228152622
1656060246138863977,576,1656060246137309074,odom,base_link_33,-0.7120583808900847,-0.4625000151736458,-1.3719114819871203e-14,-2.7185910463357136e-15,-2.4559534194658175e-15,-0.994159025847376,0.10792511906964207,0.0033416359332981514,-4.1110927877054446e-11,-3.699487660681633e-20,2.4118581841717035e-24,-2.706639978537704e-24,5.024473409878891e-09,-4.11109278770561e-11,0.0033416360545251915,-4.076429867243891e-20,1.971367192091559e-24,-2.4059103736976385e-24,-1.635982273740445e-08,-3.6995263539934895e-20,-4.0764518796185903e-20,0.004000588263718154,1.3966579883417204e-09,-1.714130908554063e-08,-7.024017500087889e-25,2.8254484904482174e-24,2.165237648349763e-24,1.3966579883417206e-09,0.002001319731354066,-3.1203057761046312e-18,-3.798252646256295e-20,-2.680790584395422e-24,-2.6127055268359895e-24,-1.714130908554063e-08,-3.1203057761046312e-18,0.0020013197313540647,-2.133479924377023e-20,5.02447340987889e-09,-1.635982273740445e-08,-7.161342406468763e-25,-3.798255311975066e-20,-2.13348121684673e-20,0.0040065052962606025,0.1304466573164973,-0.003144104875545395,-2.895253481405291e-15,-1.4581656716605062e-16,1.4296162077103766e-15,-1.5877572102617705,0.003405513602560102,1.2241797773671769e-15,-2.8272774843121063e-27,8.571581838954595e-27,1.022143170884938e-26,2.629149375516308e-16,1.2241797773671769e-15,0.003405513602619555,-8.764244657005441e-28,-6.214712180248495e-29,2.7279959164880344e-28,-4.316053448457911e-14,-4.0389678347315804e-28,-8.764244657005441e-28,0.002667727732199794,5.134784194763056e-21,-3.957685502743557e-20,9.693522803355793e-27,8.571581838954595e-27,-6.372484361292697e-29,5.134784194761515e-21,0.0006684255209476622,1.4662776136170994e-22,-1.3089668187868487e-25,1.1029225275795697e-26,2.728119176004475e-28,-3.957685502743865e-20,1.466277613601692e-22,0.0006684255209476622,-1.8612668994487e-25,2.629149376550284e-16,-4.316053448468251e-14,9.693522803355793e-27,-1.3089668187868487e-25,-1.8612668994411768e-25,0.002667087720065806
1656060246204660509,577,1656060246203958750,odom,base_link_33,-0.7212915646632609,-0.4647906204354513,1.6735744734486246e-15,1.1511880573778753e-15,-5.066741381618536e-16,-0.9944653639967677,0.10506493140328246,0.00334196467213922,-4.158004007786083e-11,1.8776889237235057e-20,-1.8590242651207646e-24,-7.813653853586599e-25,4.938426111376836e-09,-4.1580040077647416e-11,0.0033419648016687277,-6.0115084445414194e-21,1.0537403519818302e-24,1.3101493307719892e-24,-1.683299675453977e-08,1.8776889237235057e-20,-6.011495519844348e-21,0.0040009888154336,1.312438570064282e-09,-1.751658262830176e-08,-1.4699318563526246e-25,-2.2726145713716997e-24,1.1700626256220997e-24,1.312438570064282e-09,0.0020015044254468755,5.425518986337122e-19,1.306382273989233e-20,-7.813653854068082e-25,1.3101493308197613e-24,-1.751658262830176e-08,5.425585160786126e-19,0.0020015044254468586,-8.535404848207869e-21,4.938426111376835e-09,-1.6832996754539776e-08,-1.500097897368276e-25,1.30638227398931e-20,-8.535404848207869e-21,0.004006901761872269,0.1336879145765124,0.002237288844284535,1.2455314557513475e-15,-6.089867382164922e-16,-1.350381380103845e-15,-0.8751049039783538,0.003404321003237412,9.808026386115454e-16,3.4331226595218434e-27,-7.573803533601248e-27,-8.284538880896489e-27,-2.04765689831659e-20,9.808026386115454e-16,0.003404321003292544,6.4449935956556665e-28,-4.084622531709174e-28,-1.1455494804147834e-27,-8.170672054506503e-17,3.3826355615876986e-27,6.443021443392614e-28,0.0026679947614666184,8.506068097566098e-19,-1.043957383359625e-17,-1.2116903504194741e-26,-7.573803533601248e-27,-4.084622531708715e-28,8.506068097566098e-19,0.0006684922685304892,1.5416050380152447e-20,3.193242201401704e-26,-7.476757639901817e-27,-1.1455494804148294e-27,-1.0439573833596246e-17,1.5416050380149366e-20,0.0006684922685304892,9.719038836671787e-26,-2.04765689831659e-20,-8.170672049336624e-17,-1.1713006720721583e-26,3.193242201401704e-26,1.0365278620647114e-25,0.00266612030787541
1656060246271586975,578,1656060246270629168,odom,base_link_33,-0.7174832211021567,-0.46400336648730445,1.9336745746278972e-16,-2.2445278009259498e-15,-5.461299357042104e-16,-0.9986749102746839,0.05146283695883959,0.003343007228417751,-1.1707299290338488e-12,-3.271201327600378e-20,-3.811275086086695e-24,3.0162559725508135e-24,4.510320400520152e-10,-1.1707299289279697e-12,0.0033430072417881436,-1.1241414564418917e-20,1.1024204587194936e-24,-2.9674567860427857e-24,-5.18980110765699e-09,-3.271201327600378e-20,-1.1241427489115988e-20,0.004002233225731871,-8.684835214508892e-11,-5.231879584121492e-09,-7.178003148787031e-25,-3.59155523606989e-24,1.1169607429245272e-24,-8.684835214508887e-11,0.002002139288528399,-6.03644785601945e-20,-2.7148406214919836e-20,3.0162559729359994e-24,-2.9416073915153176e-24,-5.231879584121492e-09,-6.032477389079196e-20,0.0020021392885283826,-3.537879971995005e-21,4.510320400520152e-10,-5.189801107656991e-09,-7.056834113745083e-25,-2.71484070227134e-20,-3.5378928966920755e-21,0.004008150585771749,0.03892093779541028,-0.004551188504279935,-2.248201624865942e-15,-7.359924855730127e-16,8.776818825726073e-16,-1.4771723292942625,0.0034050504345678285,9.847895990057588e-16,1.397861524051633e-27,6.611056694990841e-28,-9.13113571010255e-28,7.574903001803048e-21,9.847895990057588e-16,0.003405050434618354,-7.891567280604697e-28,-3.578364088305772e-28,6.166202319798612e-28,-5.3126306369411113e-17,1.401016967672517e-27,-7.891567280604697e-28,0.0026688244637582187,8.026283467796205e-19,-1.0712347489016195e-17,2.261821987449685e-26,7.115927674332288e-28,-3.570413849495399e-28,8.026283467796206e-19,0.000668699693141851,1.4918951138899146e-20,1.9263667891661913e-25,-9.131382229120738e-28,6.166202319798612e-28,-1.0712347489016195e-17,1.4918951138902228e-20,0.0006686996931418508,-6.9687994573346905e-25,7.574903001803048e-21,-5.312630471504989e-17,-6.462348535570529e-27,1.6678733407814359e-25,-6.968800443410822e-25,0.0026666683921858685
1656060246338135471,579,1656060246337297201,odom,base_link_33,-0.7251026819030812,-0.4657593432748399,6.578830362424792e-15,9.570397672817093e-16,-2.3923592086652012e-17,-0.9984880001035578,0.054970115964928554,0.003342889787591075,-1.6418413581560618e-11,1.4805908540271946e-20,-3.1791021594310254e-24,-5.1382391180460464e-24,3.1370359476403954e-09,-1.641841358155979e-11,0.0033428898374292123,-2.511260562987038e-22,1.118895376745177e-24,-3.336714023940611e-24,-1.0463459611663832e-08,1.4805909348065513e-20,-2.511260562987038e-22,0.004002090220275997,1.9699473447083103e-09,-1.074833174147727e-08,1.3269523950031266e-24,-3.1791021600990824e-24,1.228755301849876e-24,1.96994734470831e-09,0.0020020512575850366,-1.1452442680984941e-18,1.156710199573224e-20,-5.1382391180460464e-24,-3.3302516746346684e-24,-1.0748331741477272e-08,-1.1452310332086933e-18,0.002002051257585036,-1.916737269765877e-21,3.1370359476403954e-09,-1.0463459611663832e-08,1.3269019079051925e-24,1.1567088263241602e-20,-1.916738077559444e-21,0.004008008955680276,0.08206253975004074,0.011962125159982406,5.620504062164855e-15,1.5272101260666668e-16,9.072882812194734e-16,-0.5692467843255145,0.003405503540916074,9.471471444810172e-16,-3.685558149192567e-27,2.3105544059198224e-27,-1.5345334392872687e-27,-9.664529286067092e-21,9.471471444810172e-16,0.003405503540962729,-2.7704794991361935e-27,-2.584035381575613e-28,-1.0624774881334098e-27,-1.6350465683865873e-17,-3.256417816752337e-27,-2.7168369575811647e-27,0.002668729096045308,-5.2935050737688845e-20,-3.188959623198793e-18,-4.6448130099413175e-26,2.3105544059198224e-27,-3.088967990675281e-28,-5.2935050737688845e-20,0.0006686758526741529,-2.929711368427245e-22,-3.170093085478721e-26,-1.9384302227604267e-27,-1.0624774881334098e-27,-3.1889596231987944e-18,-2.92971136839643e-22,0.0006686758526741525,2.3505450363586947e-26,-9.664555135436582e-21,-1.6350465683865873e-17,-4.0389678347315804e-26,-2.846978123890523e-26,2.3505450363492908e-26,0.002667035743665222
1656060246404689446,580,1656060246403927565,odom,base_link_33,-0.7318289322065539,-0.4656837467719015,6.74807432154978e-16,-6.487033895284681e-16,-1.0099489089441593e-17,-0.999634534425429,0.02703326809794966,0.006674328833200188,-1.4977855855041955e-08,-5.553359760436007e-20,-7.509924711257618e-21,-9.75746204034697e-20,2.471161080944815e-06,-1.4977855855039202e-08,0.0066744747263614325,-1.5967894544723646e-20,1.50299682049384e-21,-9.402955484670988e-21,-2.4339716057752716e-05,-5.553359760436007e-20,-1.2576454033256233e-20,0.008010944147169824,5.756305083464001e-07,-1.2230437268402828e-05,-6.482543374744187e-25,6.0426024447957804e-21,1.5029968204934549e-21,5.756305083464001e-07,0.004007439810530622,5.272222196808057e-13,3.734310050536948e-21,-1.102801146122842e-19,-1.1097021379179589e-20,-1.2230437268402828e-05,5.272222264570693e-13,0.00400743980251263,-2.4769276778764054e-22,2.471161080944815e-06,-2.4339716057752716e-05,-8.552514390044122e-25,3.7347236408416835e-21,-2.4769276778764054e-22,0.008005827406841949,0.09282730983068177,1.7498177337982312e-05,2.609024107869118e-15,1.4755208705051145e-15,-1.1059033049373702e-16,-0.7042328850293416,0.003404422657085466,8.252852057714046e-16,5.854483876443426e-25,2.0998877002016985e-26,-1.0662132786806919e-27,-4.728337776467455e-18,8.25285205754441e-16,0.003404422657128068,-9.854529314111402e-26,-3.3293354453057635e-28,-7.392551617337489e-28,-2.4409255819719766e-19,5.888815103038644e-25,-9.853227693617787e-26,0.005337495594879602,7.17648807574871e-13,-3.915602207722622e-12,-1.1632227364026952e-25,2.099907421724329e-26,-3.327363293042711e-28,7.17648807574871e-13,0.0013340926056309701,2.0521989116351074e-15,-1.824351336401125e-24,5.49324551405364e-28,-7.377267437298832e-28,-3.915602207722621e-12,2.0521989116351074e-15,0.0013340926056201491,4.382846253332059e-25,-4.7283379832626084e-18,-2.440928166911391e-19,-1.1632227364026952e-25,-1.824351336401125e-24,4.382846253332059e-25,0.002666234542923242
1656060246471316099,581,1656060246470625639,odom,base_link_33,-0.7425922636430187,-0.4663067622896051,1.0540776151229947e-14,1.362878981842064e-16,-1.2518522872400918e-15,0.9999819867023408,0.006002188837360024,0.003344394640113627,-6.21534895426943e-12,-5.637171251063528e-22,-4.866359678947566e-24,-5.331687481209778e-24,7.516510691968623e-10,-6.21534895426943e-12,0.003344394776513914,1.765728987780236e-20,7.075706715051668e-25,-4.3874553757094295e-25,-1.6531923510074523e-08,-5.641040582249201e-22,1.7657288262215225e-20,0.004003892749669566,9.498390395626212e-10,-1.652948577228542e-08,-1.0317038462842481e-25,-4.840510284841395e-24,6.833368644967774e-25,9.498390395626212e-10,0.002002954096263297,-1.3979210977229733e-18,4.862589853646271e-23,-5.305838087067496e-24,-4.3874553757094295e-25,-1.652948577228542e-08,-1.3979144802780729e-18,0.0020029540962632967,1.398823958083571e-20,7.516510691968623e-10,-1.6531923510074523e-08,-9.024568755728375e-26,4.862509074905874e-23,1.3988238773042144e-20,0.004009813553245445,0.1257967545898282,0.001280163906514531,1.4502288259166107e-15,-7.986616797132916e-16,-1.0975702892365816e-15,-0.7104173568804981,0.0034053195122517527,1.5167399638436738e-15,-4.8467614016778965e-27,2.9488225438408874e-26,2.140051251540741e-26,-9.154279758746226e-16,1.5167399638436738e-15,0.0034053195123245573,2.018990879300027e-29,1.3637373263983234e-28,3.6866086683883863e-28,-3.656143940408104e-14,-4.8467614016778965e-27,2.0177582841356193e-29,0.0026699307333828606,1.5951595434886563e-21,-3.379704339302231e-20,-2.0194839173657902e-28,2.9488200786411546e-26,1.3679281499573674e-28,1.5951595434886563e-21,0.0006689762633398747,3.9067020614425627e-23,-7.483613486997009e-26,2.140051251531337e-26,3.6848830351582727e-28,-3.37970433930252e-20,3.9067020614425627e-23,0.0006689762633398746,-5.68744533420757e-26,-9.154279759263214e-16,-3.656143940410689e-14,-2.0194839173657902e-28,-7.483623347758324e-26,-5.687455194968886e-26,0.0026668354244386893
1656060246539246712,582,1656060246537387609,odom,base_link_33,-0.7528621871533687,-0.4665250637481222,2.373698026331139e-15,-1.1605249001556703e-15,2.428016938358198e-15,0.9994745501842346,0.0324133234029156,0.0033476110543650007,-4.7993642871083945e-12,1.5425619492058316e-20,4.6549848477199944e-24,7.668389862132688e-25,5.012251662569476e-10,-4.799364287095263e-12,0.0033476112375740016,1.5290767534611033e-19,-9.165973368334219e-18,-2.074480777192944e-17,-1.914506199391724e-08,1.542559202707704e-20,1.529076616136197e-19,0.004007726584637998,1.7413063534791168e-09,-1.9086887448486404e-08,3.122497209981989e-16,4.629135453962898e-24,-9.165973355409522e-18,1.7413063534791168e-09,0.0020048710468882304,7.939891665723719e-20,9.108307586458559e-16,3.5324868003305144e-25,-2.074480777192944e-17,-1.9086887448486404e-08,7.939891665723719e-20,0.0020048710468882165,1.3430816975613564e-15,5.012251662569459e-10,-1.9145061993917245e-08,3.122497209981989e-16,9.10830758645452e-16,1.3430816975613564e-15,0.004013664352759555,0.14540519939691876,0.006355370335114685,5.1486592766991635e-15,-8.714432024403625e-16,1.4654993776203206e-15,-0.7134739231332787,0.0034087445342917233,1.3363692501543852e-15,-5.513191094408607e-26,-1.4230993913026367e-24,-9.784161323460733e-25,-4.941901771653696e-15,1.3363692501543852e-15,0.003408744534359423,-8.01482679704548e-28,8.845242670074772e-28,5.654894650453882e-28,-6.538789949160043e-17,-5.351632381019344e-26,-7.509955817704032e-28,0.0026724865983535724,5.812368612009478e-19,-1.0114920552539495e-17,-1.6115481660579006e-25,-1.4230993943841246e-24,8.845242670076609e-28,5.812368612009478e-19,0.000669615223728019,1.0200470675588208e-20,6.458319344983881e-26,-9.784161323460733e-25,5.654894650453882e-28,-1.0114920552539492e-17,1.0200470675584356e-20,0.0006696152237280188,7.493762652874894e-26,-4.941901771601997e-15,-6.538789955622392e-17,-1.6438599087357532e-25,6.13520068561019e-26,7.816885010024674e-26,0.002669467625577138
1656060246604650817,583,1656060246603965759,odom,base_link_33,-0.7345502408061293,-0.4685390270751668,1.2114820865244402e-14,3.1441539815511345e-15,-1.721496037342885e-15,0.990987414941761,0.13395500523327203,0.003338385342627728,1.020357035982958e-11,-4.268567686889264e-20,-5.165082661890404e-24,-8.775285804903724e-24,2.385729635286039e-09,1.020357035982958e-11,0.003338385376354232,3.6199182373864125e-20,1.0131114781498258e-17,9.616964461344631e-19,8.55093782931891e-09,-4.268567686889264e-20,3.619918883621266e-20,0.003996697148800432,3.252779524264175e-11,8.914027245840685e-09,1.6592165396633094e-16,-5.384802512099802e-24,1.0131114891358183e-17,3.2527795242641804e-11,0.001999369851289621,8.208288459554873e-19,4.093207288759985e-16,-8.98208095809013e-24,9.61696291038098e-19,8.914027245840685e-09,8.208156110656864e-19,0.0019993698512896013,8.566700985370354e-16,2.3857296352860394e-09,8.55093782931891e-09,1.6592165396631832e-16,4.0932072888286477e-16,8.566700985370354e-16,0.0040026080701911415,-0.06864544308155018,0.00667816865583859,-1.214306433183765e-15,-1.3568222274494102e-15,-9.547903871227172e-16,-1.4257664772012504,0.0034053478228496304,1.2798778192205469e-15,-7.446846945286351e-28,-4.276733238540465e-27,-1.3050658925203889e-27,1.9443123609090318e-20,1.2798778192205469e-15,0.00340534782291123,-2.934562567422164e-28,3.9593192538772656e-27,5.813051348330971e-27,-5.726687847331145e-17,-5.427363027920561e-28,-2.934562567422164e-28,0.002665133721512919,1.0655403696705793e-18,-1.1679649844903371e-17,6.462348535570529e-26,-4.074760194912353e-27,3.908832155943121e-27,1.0655403696705824e-18,0.0006677770207565961,2.1592736986516133e-20,-2.3103014472371293e-25,-1.3050651221484111e-27,5.813051348330971e-27,-1.1679649844903371e-17,2.1592736986516133e-20,0.0006677770207565964,1.3162691720683437e-25,1.9443123609090318e-20,-5.726687764613084e-17,6.462348535570529e-26,-2.5687953886599505e-25,1.0577752306455225e-25,0.0026670687409413897
1656060246671871726,584,1656060246670635700,odom,base_link_33,-0.7418228318492766,-0.46596989169120206,-5.638610238445363e-15,1.8973316081390023e-15,2.1064675011384156e-15,0.93190359760124,0.36270605836939934,0.0033429753392822258,1.7137027335770976e-12,-3.673061895731915e-20,7.589913129517846e-24,-3.0763574890615873e-24,-1.6882612521763594e-09,1.7137027337888558e-12,0.003342975339917527,-1.9138503682033544e-20,-1.565442558374464e-24,2.9888047491153237e-24,-2.029453098493677e-09,-3.673057048970513e-20,-1.9138503682033544e-20,0.004002204604480409,1.1269092930620065e-10,-2.741853351565322e-09,1.61453663101766e-16,7.602837826588893e-24,-1.5234372928451073e-24,1.126909293062007e-10,0.0020022682576871413,-7.084716946218372e-18,2.334360686482672e-17,-3.1280562773461516e-24,2.9888047491153237e-24,-2.741853351565322e-09,-7.084716946218372e-18,0.002002268257687132,5.325119493625546e-16,-1.6882612521763594e-09,-2.029453098493677e-09,1.614536631025738e-16,2.334360686482672e-17,5.325119493496299e-16,0.004008115533024028,0.01879539071455838,-0.0047445110064074925,-6.036837696399289e-16,-1.5058976061071133e-15,3.4436114184826534e-16,-4.279151671275031,0.0034032530334047128,1.1811388954498954e-15,-1.5903435849255598e-27,-2.09923289095955e-27,-1.2344128341378164e-27,2.89887787341669e-20,1.1811388954571655e-15,0.0034032530334615306,1.5230931927554685e-27,-1.991534586711636e-27,-4.143461785254939e-28,2.8592519196173056e-17,-1.5903435849255598e-27,1.5248681297922158e-27,0.0026688053889239727,1.9834535733144602e-20,5.4352768086633824e-18,-1.0985992510469899e-25,-2.301181282696129e-27,-1.993099982570434e-27,1.983453573314701e-20,0.000668694919969964,-1.8703947364663737e-22,-3.472524715546907e-25,-1.2344189971136385e-27,-4.159239003359359e-28,5.4352768086633824e-18,-1.870394736481781e-22,0.0006686949199699642,-1.6340662714957305e-25,2.898857193911237e-20,2.8592519816558515e-17,-1.1309109937248425e-25,-3.472524715546907e-25,-1.375572083557638e-25,0.0026652286834460076
1656060246738312439,585,1656060246737321854,odom,base_link_33,-0.7474421744591382,-0.46087557096689125,-1.0265226169092756e-15,9.562523188799872e-16,1.3807731389966932e-15,0.9185472802353666,0.3953111356541969,0.0033437998585243715,2.1672686879282022e-11,-2.02737400064126e-20,2.3623201656475625e-24,-5.344656972459336e-25,-6.7817936604887125e-09,2.167268687949378e-11,0.0033437998559364794,-1.2891578342689825e-20,2.004324859931026e-24,-1.1643893903348404e-24,-6.389030597230871e-09,-2.02737400064126e-20,-1.2891785137842964e-20,0.004003177397575736,-5.04513749510971e-11,-9.512259131832498e-09,1.6065042275426277e-16,2.3493954685764215e-24,2.0560236486037855e-24,-5.0451374951096685e-11,0.002002678100562084,-6.2043202155660566e-18,-6.730689218214963e-17,-7.412608503841906e-25,-1.1643893903348404e-24,-9.512259131832498e-09,-6.2042408062272515e-18,0.0020026781005620816,3.2417820947703196e-16,-6.781793660488711e-09,-6.3890305972308714e-09,1.60650422754288e-16,-6.730689217811067e-17,3.2417820947703196e-16,0.004009099324076329,0.06890612292681908,-0.014862122296960933,1.420738526825005e-15,3.9516604698430584e-16,-1.2332374735962946e-15,-3.1129302084445953,0.0034059835993260077,1.1094000725139575e-15,-5.963788443470849e-28,-5.246944190293091e-28,-5.668143326834893e-28,1.1352653599897906e-20,1.1094000725151692e-15,0.0034059835993780854,4.922492048579114e-28,-1.35725926298822e-27,-1.497364884352453e-27,-8.144785433554647e-18,-5.963788443470849e-28,4.922492048579114e-28,0.0026694538933431274,6.616592384102447e-20,-1.6098610841030715e-18,8.401053096241687e-26,-5.247190709325973e-28,-1.4582334588565095e-27,6.616592384102447e-20,0.000668857050762647,1.8569570617689518e-22,-7.040106101688077e-25,-5.163272347500793e-28,-1.4973648843531877e-27,-1.609861084103072e-18,1.8569570617689518e-22,0.0006688570507626466,-3.2747747034357167e-25,1.1353067190204183e-20,-8.144786881120719e-18,8.401053096241687e-26,-7.040106101688077e-25,-3.2747749499472264e-25,0.00266738848203491
1656060246804958718,586,1656060246803969622,odom,base_link_33,-0.7444409788040502,-0.4637425202599843,-1.3408111426693736e-14,1.7559236587107016e-15,-1.865764574764107e-15,0.7665120546962421,0.64222991989267,0.003341873656444117,2.043761365257146e-13,-3.588732983032506e-21,3.839761363437023e-25,9.080638312780542e-25,-1.049916939221882e-09,2.0437613631395636e-13,0.003341873655968435,3.668658042494284e-20,-1.5056430040765481e-25,-3.4799508976693884e-24,-3.8870878091235177e-10,-3.5887338160696216e-21,3.668655295996156e-20,0.004000874221252327,1.9145982763465294e-10,-1.1878736584021335e-09,1.6203946468003236e-16,3.702436457055679e-25,-1.247149062653727e-25,1.9145982763465294e-10,0.002001751919652779,-9.293331460030979e-18,-6.402344654432207e-17,9.339132254203363e-25,-3.429867696518717e-24,-1.1878736584021335e-09,-9.293331460030979e-18,0.002001751919652764,1.6211122232506555e-16,-1.0499169392218822e-09,-3.8870878091235167e-10,1.6203946467922457e-16,-6.402344652493502e-17,1.6211122232425775e-16,0.0040067908149698656,0.0075236218561940404,-0.0018271899611264075,3.1068897454744615e-15,-1.7714844846168299e-15,-1.2592164021650523e-16,-5.923794890113641,0.003405345904876232,1.0053523954430119e-15,-9.336168813290675e-28,4.08899482102986e-28,-1.619006671745942e-28,-8.175044892583587e-18,1.005352395442406e-15,0.003405345904924185,3.6563702956993897e-28,-3.9820706147104843e-28,1.4019613568629056e-28,-2.7593864986455717e-17,-9.269115636346889e-28,3.5932614232817088e-28,0.0026679184677490878,-3.0214728815005636e-20,-5.696895512520789e-18,-3.3927329811745276e-25,4.08899482102986e-28,-3.9820706147104843e-28,-3.0214728815005636e-20,0.0006684731979361224,-2.9943847259575397e-22,-1.0396103544704483e-25,-1.6821155441654596e-28,1.4018380973464648e-28,-5.696895512520789e-18,-2.994384725926725e-22,0.0006684731979361225,-4.105554913276924e-25,-8.175044892583587e-18,-2.7593864159275104e-17,-3.90972086402017e-25,-1.0396103544704483e-25,-3.0715791475705932e-25,0.0026669449558403453
1656060246871298802,587,1656060246870627165,odom,base_link_33,-0.7431675669758988,-0.46254188773855276,5.185142679803301e-15,-1.0879628990964879e-16,2.838869008084706e-15,0.7350264235571184,0.678038462532054,0.00334236036817109,-2.6983493837983436e-13,-2.6038912105636328e-20,-3.958608549232237e-24,-4.418849625643285e-24,-4.854529619306657e-10,-2.698349381680761e-13,0.003342360368671917,-3.134318693246117e-20,-1.8283265804234114e-24,-1.0979909417785637e-24,1.1113662789534515e-09,-2.603888787182932e-20,-3.1343186124667604e-20,0.004001460733241903,-1.1762745964358513e-09,-3.997237987806371e-10,8.105881346999244e-17,-3.9731488326661465e-24,-1.812170708891516e-24,-1.1762745964358513e-09,0.002001833886419907,-6.504083113100157e-18,-1.8132613032720733e-17,-4.420465212777178e-24,-1.0979909417304155e-24,-3.997237987806371e-10,-6.504083113100157e-18,0.002001833886419903,8.102183527553403e-17,-4.854529619306657e-10,1.1113662789534517e-09,8.10588134732173e-17,-1.8132613029691507e-17,8.102183527533208e-17,0.004007375652254971,0.00017250985197847513,-0.009217868885968983,3.975986206938842e-15,-1.6671567926475527e-16,8.52755499965407e-16,-3.3595572604390327,0.003404653542888371,9.221888627598862e-16,-6.796036698479017e-28,3.1194510222660276e-28,-2.1417386138568527e-28,1.8590558200025253e-22,9.221888627598862e-16,0.003404653542932448,-2.1204581132340797e-27,9.039654126714385e-28,-6.396157145282494e-28,-3.471543985351872e-21,-6.7802594803745965e-28,-2.066815571679051e-27,0.002668309476166882,1.0826901945691926e-19,-6.717357046043297e-19,1.454028420503369e-25,3.1192045032340644e-28,9.039407607681504e-28,1.0826901945691618e-19,0.0006685709469819512,1.2726880299850437e-22,-4.0422768959866458e-25,-2.141738613856738e-28,-5.891286165940128e-28,-6.717357046043312e-19,1.2726880299542288e-22,0.0006685709469819514,-3.532766327760104e-26,1.8590558199948216e-22,-3.471543985351872e-21,1.4701842918422953e-25,-3.7837829545638246e-25,-9.478256809367279e-27,0.0026663729343167895
1656060246939133044,588,1656060246937329292,odom,base_link_33,-0.7428351675262093,-0.45787370831749286,2.2240781265281395e-15,2.8454178192531854e-15,-3.463712629297725e-16,0.6197336689202269,0.7848121938442819,0.0033446008008875083,-4.097228608556838e-12,-2.2135636121615844e-20,-5.824713196721447e-26,4.534422881415358e-25,-4.84628955262418e-09,-4.097228608530575e-12,0.0033446007905681956,3.4728946181285153e-20,3.606095549046511e-24,-1.6770252019584317e-24,1.6902390495623626e-09,-2.2135691152552592e-20,3.4728842783708584e-20,0.00400413581415755,-5.718695924414287e-10,-5.282675087291701e-09,8.087013492868071e-17,-7.117182903835553e-26,3.916288278767438e-24,-5.718695924414287e-10,0.002003216211610666,-8.091286679126873e-18,-2.1859942757563792e-17,5.019099021583148e-25,-1.5800899739248738e-24,-5.282675087291701e-09,-8.091180800008466e-18,0.0020032162116106612,8.103236102447427e-17,-4.84628955262418e-09,1.690239049562363e-09,8.087013493473916e-17,-2.185994275917938e-17,8.103236102447427e-17,0.004010059504397451,0.03580655754694817,-0.014214533888662118,-1.817990202823694e-15,4.555666374936519e-16,-6.95084977130816e-16,-4.038348812435288,0.0034061077475551005,8.613255416295889e-16,-6.563322731438818e-27,1.902165793184894e-27,-6.170167552289957e-27,-1.4355480102580046e-19,8.6132554161989535e-16,0.003406107747595651,-2.543287558432542e-27,6.221977945108067e-28,-1.9943347365650456e-27,-3.5980421839405677e-20,-6.563322731438818e-27,-2.6442617543008316e-27,0.0026700928591789257,-7.018877943889558e-19,-2.385174968989501e-19,7.94868869875175e-25,2.306062576658052e-27,6.221947130228957e-28,-7.018877943889619e-19,0.0006690167903796898,-2.913547127220978e-22,-1.9816809983599143e-25,-6.574088987666403e-27,-1.9943347365650456e-27,-2.385174968989501e-19,-2.9135471271593483e-22,0.0006690167903796899,9.612076374192923e-25,-1.435548010261949e-19,-3.597918106848685e-20,7.916376956073898e-25,-1.981680875107921e-25,9.09508849134728e-25,0.0026674598408084624
1656060247004726204,589,1656060247003964901,odom,base_link_33,-0.742741515598027,-0.4606753336629481,-1.0855194781250743e-14,2.5996101737804073e-16,-3.734456009609988e-15,0.4963782041212586,0.8681063750908377,0.0033412646956898972,-2.2671683911753905e-13,4.231210132377418e-20,-6.077418242375897e-25,-1.1503802659347754e-24,-2.3889876521113573e-10,-2.2671683922341817e-13,0.003341264697456451,2.996866377624897e-20,1.7141368611336664e-24,2.9818360122765354e-24,1.894119010923182e-09,4.2312101222799985e-20,2.996867065511606e-20,0.004000144658529836,-1.6105852313689096e-09,-1.2120928305819305e-09,8.103991239283152e-17,-6.626717867891869e-25,1.7141368611336664e-24,-1.6105852313689098e-09,0.0020013067131730805,-1.002889180182526e-17,-2.7590036857383086e-17,-1.150380265548837e-24,2.9753736633076307e-24,-1.2120928305819305e-09,-1.0028944741384463e-17,0.0020013067131730727,8.107727225903947e-17,-2.3889876521113553e-10,1.894119010923182e-09,8.103991239971038e-17,-2.759003686546102e-17,8.107727225863557e-17,0.004006060510439757,0.0037762164171226686,-0.013859695986809584,3.948230631323213e-15,-1.4320628109640757e-15,-6.249744817354959e-16,-5.103069370496087,0.0034054143046116556,7.830764007460891e-16,2.753124559221331e-28,-7.896260472458717e-28,-5.092808311160288e-28,-6.1254145581338376e-18,7.830764007421511e-16,0.0034054143046489,1.8427790745962836e-27,1.6462236974364087e-27,1.1306067525044209e-27,-1.6409683525076885e-17,2.887230913108903e-28,1.748115765969762e-27,0.002667432090883312,-3.3729890541304914e-19,-3.1158141455802457e-18,-1.001664023013432e-24,-8.0226014768105195e-28,1.6462360233880528e-27,-3.3729890541304625e-19,0.0006683516055304228,-1.8313470840058004e-21,-9.27868352943997e-25,-4.966590566324926e-28,1.130619078456065e-27,-3.1158141455802457e-18,-1.8313470840058004e-21,0.0006683516055304233,-1.1517115548773883e-24,-6.125414144543531e-18,-1.640968393866719e-17,-1.1050615995825604e-24,-9.27868352943997e-25,-1.0483140276120664e-24,0.002667021128709821
1656060247071515793,590,1656060247070625305,odom,base_link_33,-0.7417656875659304,-0.4601399688745005,-4.5841694155945856e-15,1.782141423210493e-15,1.4303876201351332e-15,0.4128263828748369,0.9108097373230474,0.0033425027217206314,-3.217606645742141e-13,-3.06958894769539e-20,4.454008403541018e-24,9.680235746864351e-25,-3.4970138126618913e-10,-3.2176066478597235e-13,0.0033425027233517784,1.5893318159098948e-20,1.6893875913160954e-24,4.0697497392466436e-25,1.8400115278956012e-09,-3.069583444601715e-20,1.5893330250758904e-20,0.004001632396263891,-1.191849073988814e-09,-1.5115419630640664e-09,8.101697985423234e-17,4.5089383660933674e-24,1.6893875913164715e-24,-1.1918490739888142e-09,0.0020019335028540436,-7.139463610691193e-18,-1.9358030111395165e-17,9.712547485690344e-25,3.9324248309417207e-25,-1.5115419630640664e-09,-7.139516550250397e-18,0.0020019335028540397,8.102152609959715e-17,-3.4970138126618934e-10,1.8400115278956012e-09,8.101697984818651e-17,-1.9358030111395165e-17,8.10215260931348e-17,0.004007546744214598,0.008129948619853167,-0.01121008008226454,1.0911410663894117e-15,-1.185199978401997e-15,1.180523702608105e-15,-3.5830093352415133,0.003404428470723313,7.189058778131309e-16,-7.194411455615628e-28,5.822668385437818e-28,-7.022415396792226e-28,-8.176893935112587e-18,7.189058778123231e-16,0.003404428470757558,3.818086781269697e-28,-9.745016175277475e-28,1.079823417584322e-27,4.84247342326707e-21,-6.68954047627418e-28,3.3132158019282496e-28,0.002668423917639176,-9.293053956057764e-19,-6.993786593781834e-19,-5.735334325318844e-26,5.317859035854591e-28,-9.240145195936027e-28,-9.293053956057795e-19,0.0006685995563958933,-1.135187135574536e-21,-1.502691393093563e-26,-7.0224770265431e-28,1.1303105155184667e-27,-6.993786593781819e-19,-1.1351871355753063e-21,0.0006685995563958935,8.188509522437277e-26,-8.176893986811375e-18,4.84247342326707e-21,-5.735334325318844e-26,-1.502693858283892e-26,8.188511987627606e-26,0.0026661876008823447
1656060247138495639,591,1656060247137310266,odom,base_link_33,-0.7414481224332121,-0.46240676656452706,-4.431947430577621e-15,1.5797353555384334e-15,1.9162278013956574e-15,0.22315527467764593,0.9747829109004448,0.0033437389086090293,7.942285411922658e-13,-3.359397544428478e-20,-4.159297018227417e-24,-3.2039672899990453e-24,3.1532737196046274e-09,7.942285411922658e-13,0.003343738903762887,1.6134156434208063e-20,-7.723473458043242e-26,6.088388249580259e-26,5.034210812958411e-10,-3.359397544428478e-20,1.6134156434208063e-20,0.004003105833267693,-3.1363856626115112e-09,9.563786448252112e-10,4.056458188381402e-17,-4.159297018224407e-24,-7.723473458344169e-26,-3.136385662611512e-09,0.0020026665755402623,-6.616812646989733e-18,-9.510444461267816e-18,-3.197504941511623e-24,-4.2513694121474117e-26,9.563786448252112e-10,-6.616786177210131e-18,0.002002666575540257,4.049775730092243e-17,3.153273719604627e-09,5.034210812958411e-10,4.0564581880582843e-17,-9.510444459046384e-18,4.049775730092243e-17,0.004009026735411653,-0.01302076527429108,-0.021075683357935304,3.0322966360074588e-15,-1.2203748484426628e-15,-1.8744669353998204e-15,-3.5239237875503022,0.0034057125310703717,6.732655185904015e-16,2.129924444096732e-28,3.11529805992357e-28,-3.782593575056029e-28,-8.174952344709282e-18,6.732655185904015e-16,0.0034057125311018526,-1.6806681585733657e-27,2.383119450296408e-28,7.238035004302226e-28,1.5150843892702352e-21,1.8932661725304283e-28,-1.6743572713315976e-27,0.0026694062091472577,-7.086365829163605e-19,-8.987159092087953e-19,-3.311953624479896e-26,3.1152980599088764e-28,2.3831194502973264e-28,-7.086365829163574e-19,0.0006688451291945224,-1.1087758230286109e-21,3.8125399846716867e-26,-4.0350290647262935e-28,7.238035004302168e-28,-8.987159092087983e-19,-1.1087758230286109e-21,0.0006688451291945225,-1.8655730960667e-26,-8.174952525655041e-18,1.515291184423566e-21,-2.665718770922843e-26,4.458769907848082e-26,-1.8655727879167334e-26,0.002667173283743063
1656060247204884484,592,1656060247203969240,odom,base_link_33,-0.7391005320132535,-0.4599177950349258,1.0444607418530483e-14,-2.456750969544771e-15,-3.5321524226191006e-16,0.03963652712459671,0.9992141640897116,0.0033424363490303106,-9.660684566655783e-13,7.11849239086492e-21,-7.953589847757533e-24,-1.0174869873729663e-24,-8.793039179395552e-10,-9.660684562420619e-13,0.003342436351058497,-3.3911107802308056e-20,-3.358429052481637e-24,5.596453785271995e-27,2.1971401778797393e-09,7.11849239086492e-21,-3.39111336517022e-20,0.0040015465667980425,7.112232555253804e-10,-2.41760472711434e-09,2.024208884823796e-17,-8.005288636426531e-24,-3.384278446623919e-24,7.112232555253804e-10,0.0020020459254954906,-1.1340759649403947e-17,-7.432058158035824e-18,-8.623906219414946e-25,2.983026079366148e-26,-2.41760472711434e-09,-1.134065377028554e-17,0.0020020459254954837,2.0288883427382557e-17,-8.793039179395554e-10,2.1971401778797393e-09,2.0242088847430167e-17,-7.43205815843972e-18,2.0288883428139863e-17,0.004007465043583721,0.01738218783953016,-0.0011271705933495468,1.908195823574488e-15,6.631852856604632e-16,-7.551172968955925e-16,-5.507365583151113,0.0034056207492806608,5.996846430388554e-16,-6.815758221109542e-28,-1.924696172450127e-27,-8.073951857482933e-28,-1.633008270459403e-17,5.996846430388554e-16,0.0034056207493095743,-3.8496412174785376e-28,4.8119389364568567e-29,-2.8251655193453263e-28,5.1089042489715e-18,-6.815758221109542e-28,-3.8456969129524326e-28,0.002668366697640609,-1.8665635936374615e-18,5.691703791595508e-19,2.1325750167382745e-25,-1.924702335425949e-27,4.8119389364568567e-29,-1.86656359363746e-18,0.0006685852545885208,1.8493757623183595e-21,-2.9197925233572955e-25,-8.073951857482933e-28,-2.7619333874112046e-28,5.691703791595494e-19,1.8493757623183595e-21,0.0006685852545885207,-2.432189462200528e-25,-1.6330081670618264e-17,5.1089042489715e-18,1.8740810753154533e-25,-2.919792523342249e-25,-2.4321899552385936e-25,0.002667145557321953
1656060247271572001,593,1656060247270630121,odom,base_link_33,-0.7404901910667832,-0.4614578574892221,1.047360982664447e-14,-2.155533159064904e-15,-1.8234104683682764e-15,0.03139255354655544,0.9995071323316441,0.003342529262475826,8.821807468868372e-13,2.76594275880809e-20,3.7942786964623104e-24,5.1510740509891535e-24,1.2394986563809053e-09,8.82180746675079e-13,0.003342529262720708,-3.186838275525346e-20,2.6325863967498978e-24,2.2367634498443052e-24,1.4231058779373425e-09,2.765937265811835e-20,-3.186838275525346e-20,0.0040016610069120145,-1.357606503497568e-09,-1.3663493056940236e-09,2.0255445588995983e-17,3.7910475219052595e-24,2.584118782733119e-24,-1.3576065034975677e-09,0.0020019186438909437,-5.916083933009608e-18,-4.189299369401455e-18,5.151074050989906e-24,2.288462238128117e-24,-1.3663493056940236e-09,-5.916083933009608e-18,0.0020019186438909407,2.0292353887976358e-17,1.2394986563809048e-09,1.4231058779373427e-09,2.0255445589210554e-17,-4.189299369363586e-18,2.0292353887976358e-17,0.004007577513557302,0.007301192601403272,-0.01198035859937363,4.9439619065339e-16,1.4496367249805887e-15,6.481886982306578e-16,-3.0909068974724505,0.0034050239332598445,5.576654706186373e-16,-2.208810534618833e-29,6.340957204429067e-28,6.90066597277013e-28,8.602125130171312e-21,5.576654706137906e-16,0.003405023933286431,-6.2477783693504135e-28,-4.446514179359603e-28,6.999272172008764e-28,-8.154933428830807e-18,-2.208810534618833e-29,-7.257520328033309e-28,0.0026684429916508977,4.0644041867532e-19,-1.3815850992940289e-18,-3.3281094958188223e-25,6.340957204436414e-28,-4.446390919843162e-28,4.0644041867532e-19,0.0006686043263341037,9.816896166445827e-22,-4.8319869153728565e-25,6.90066597277013e-28,6.99927217201611e-28,-1.381585099294032e-18,9.81689616643042e-22,0.0006686043263341036,4.481509620471386e-25,8.602125130171312e-21,-8.15493363562596e-18,-3.3281094958188223e-25,-4.8319869153728565e-25,3.964521737625744e-25,0.0026666638946041222
1656060247338216196,594,1656060247337297440,odom,base_link_33,-0.7385363594148657,-0.46180228226694453,-1.200764748049421e-14,1.4382387740178809e-15,1.4690942539324775e-15,-0.197934522280816,0.9802152441629671,0.0033428528036071395,1.0439888645196768e-12,-1.7511654290230546e-20,6.341907784510765e-24,6.305734676239151e-24,8.827694377208383e-10,1.0439888645200904e-12,0.0033428528060143307,2.3707279487414988e-20,1.9699231766423006e-24,4.744211186474301e-24,2.3648177388038575e-09,-1.7511654290230546e-20,2.3707305387296228e-20,0.004002047248156155,8.061776165610868e-11,-2.6525803099417064e-09,1.0120733379473927e-17,6.370988353017129e-24,1.965076415336825e-24,8.061776165610868e-11,0.0020022390530581437,-9.42164137685669e-18,-3.2855483778794687e-18,6.254035887956092e-24,4.7700605806165834e-24,-2.6525803099417064e-09,-9.421588437297486e-18,0.002002239053058136,1.011339785801277e-17,8.827694377208386e-10,2.3648177388038575e-09,1.012073337949917e-17,-3.2855483776775195e-18,1.0113397858038013e-17,0.0040079650651828475,0.017884105005123274,-0.005356071303708632,-2.7911700728466826e-15,1.6277199087826586e-15,-1.2112919264309547e-15,-4.886947960068937,0.0034052461808977653,5.140894345543832e-16,2.7894121608614977e-27,-4.479733286112867e-27,4.919501732156881e-28,-6.07429690096184e-21,5.140894345665001e-16,0.0034052461809221655,2.8430547024165265e-27,-7.692259276068107e-28,5.267796183232674e-28,-4.088817168236304e-18,2.7894121608614977e-27,2.817811153449454e-27,0.0026687004854628214,-8.133468362046952e-19,-8.185864148941099e-19,1.3651711281392742e-25,-4.4797209601641616e-27,-7.692136016551666e-28,-8.133468362046891e-19,0.00066866869947788,-1.158124937332943e-21,1.4193639295875037e-25,2.9000794445199235e-28,5.2678578129908945e-28,-8.185864148941099e-19,-1.158124937332943e-21,0.0006686686994778801,6.173662783395706e-26,-6.075072382786108e-21,-4.0888170648387276e-18,1.3651711281392742e-25,1.2901169588760931e-25,6.173660318205378e-26,0.002666830675098696
1656060247405186775,595,1656060247403959751,odom,base_link_33,-0.7377793648302031,-0.46286472201973083,1.211986240534646e-14,5.1167992531899124e-17,-4.166838246000507e-16,-0.27212552145215624,0.9622617630220958,0.003342602041479272,1.3238704442223522e-12,4.828308013973281e-21,9.006084358372983e-26,-6.169705848383106e-25,2.9544628994466024e-09,1.3238704442223522e-12,0.0033426020375145024,-1.8231070798088317e-21,-1.6250446480135085e-25,3.8636124179564765e-25,8.956869511931654e-10,4.828308013973281e-21,-1.8231070798088317e-21,0.004001746841061716,-2.1104389478550848e-09,-2.361931923403427e-09,3.1948677334833725e-24,9.813877925319299e-26,-1.6250446480135085e-25,-2.1104389478550848e-09,0.002001983464873894,-6.8138524991035325e-18,-4.078463260997554e-21,-5.911211906959344e-25,2.829636654191122e-25,-2.3619319234034266e-09,-6.813746619985126e-18,0.0020019834648738904,1.6605171856897725e-22,2.9544628994466024e-09,8.956869511931654e-10,3.1980989077511578e-24,-4.078459222029719e-21,1.6605171856897728e-22,0.004007664337457951,0.012975915002357397,-0.019240822991719142,-2.912600716165059e-15,1.8408657940521247e-15,-1.5867143175931989e-15,-3.4669562165800016,0.0034052703083669016,4.83366228574523e-16,2.928251680180396e-27,-2.134984587035023e-27,1.0632931000258547e-27,-3.185277816012966e-20,4.833662285753308e-16,0.0034052703083893307,-1.5942878894516649e-27,1.089015832018668e-27,-1.1117751343249477e-27,5.200844440603139e-21,2.928251680180396e-27,-1.5934990285464438e-27,0.002668500212632986,4.673975410543934e-20,-1.537902348523917e-18,-4.717514430966486e-25,-2.235958782897435e-27,1.0890281579703122e-27,4.673975410543934e-20,0.0006686186320079401,1.2546170324922804e-22,5.528725817184143e-25,1.0632931000258547e-27,-1.0991533598414115e-27,-1.537902348523914e-18,1.2546170324922804e-22,0.0006686186320079401,-1.9978409246803916e-25,-3.185277816012966e-20,5.199190079378033e-21,-4.717514430966486e-25,5.5287253241460775e-25,-1.4808527953157164e-25,0.0026668587581021846
1656060247471441699,596,1656060247470626354,odom,base_link_33,-0.7370821223194071,-0.46067010269143793,-1.2062779160965098e-14,1.664306154622586e-15,5.94094075412636e-16,-0.41622335665918037,0.909262402924131,0.0033428170366992162,-9.382585398807054e-13,1.807849979787329e-21,-2.2411979786946544e-25,-1.0204021494078374e-24,-1.4490118663169926e-09,-9.382585396689472e-13,0.0033428170364862707,2.5167179456433902e-20,-1.1500033014809052e-24,-9.42781395076618e-25,1.2949943309253774e-09,1.8077982809990444e-21,2.5167176225259634e-20,0.00400200433133955,1.9970190543462835e-09,2.467933964850446e-10,9.207900030101738e-26,-2.2411979786927736e-25,-1.2017020899578743e-24,1.9970190543462835e-09,0.0020021511880903026,-8.443215470819195e-18,9.869931730911508e-21,-1.0204021490226514e-24,-9.42781395076618e-25,2.467933964850446e-10,-8.443268410378398e-18,0.0020021511880902983,-1.7357580932549895e-20,-1.449011866316993e-09,1.2949943309253774e-09,9.20269354812728e-26,9.869931882371262e-21,-1.735757936744986e-20,0.004007922150508806,0.0014539575313960995,0.014810660909688522,2.598615767013257e-15,1.1366227364584257e-15,1.4425337996102486e-15,-4.050475766940508,0.0034052626121559315,4.309885739269184e-16,1.7966307116408544e-28,8.505480705497866e-29,2.3128373401187916e-28,-9.196856095050076e-18,4.309885739269184e-16,0.0034052626121765673,4.165185579566942e-28,-1.3823557060548223e-27,-1.0038536115900658e-27,-8.205556233403304e-18,1.7966307116408544e-28,4.165185579566942e-28,0.002668671875067263,-1.2571699137571315e-18,-1.4069837841231704e-18,1.1309109937248425e-25,8.505480705502458e-29,-1.2813691842348887e-27,-1.2571699137571323e-18,0.0006686615470164289,-3.078806125276063e-21,5.847295574639447e-25,2.3207259491710017e-28,-9.028794157217762e-28,-1.4069837841231712e-18,-3.0788061252729816e-21,0.0006686615470164292,7.234630154642074e-25,-9.196856095050076e-18,-8.205556233403304e-18,1.1309109937248425e-25,5.847295574639447e-25,7.234630154642074e-25,0.0026668451308534996
1656060247537985796,597,1656060247537291765,odom,base_link_33,-0.7373021009589138,-0.4642383162936312,1.2700832139472817e-14,-1.2320969633114592e-15,2.620379410218974e-15,-0.5038071367643193,0.8638161661750366,0.0033427576403898263,-1.1812777801599982e-13,-4.3168994552716313e-20,5.522552551260975e-24,-3.66040540800227e-24,2.6844532307828403e-09,-1.1812777822444934e-13,0.0033427576367880654,5.803053679519871e-21,-2.0515902296619733e-24,9.34980664494746e-25,-8.77078699319286e-11,-4.316899414881953e-20,5.803047217171336e-21,0.004001932807214622,-1.4214033943718903e-09,-2.3231926802754156e-09,2.158575872174359e-25,5.525783725625057e-24,-2.0645149266364417e-24,-1.4214033943718903e-09,0.002002027652209928,-5.124799409730419e-18,2.516378831856414e-20,-3.653943059851886e-24,1.038378240680193e-24,-2.3231926802754156e-09,-5.124799409730419e-18,0.0020020276522099262,2.3544978684791748e-20,2.6844532307828407e-09,-8.77078699319286e-11,2.150497936504896e-25,2.516378831856414e-20,2.354497949259147e-20,0.004007850793550552,0.014877882157634303,-0.013454496898134494,1.6948248360293405e-15,-8.750169904459221e-16,-2.3887992218904908e-15,-2.55435241482337,0.0034053371158744043,3.911153191575924e-16,2.0889036770252393e-27,7.616473528709673e-28,-3.6115395034369614e-27,8.171108146842723e-18,3.9111531916486253e-16,0.003405337115893389,2.8398992587956425e-28,6.959786040207165e-28,-1.2664770000031463e-27,-1.4805055424926524e-21,2.1898778728935288e-27,2.808344822586802e-28,0.0026686241911071753,1.1776603871702003e-18,1.4553530994062092e-19,-1.3328593854614215e-26,6.60697808905966e-28,6.959786040207165e-28,1.1776603871702028e-18,0.0006686496263751478,-2.9868959682797517e-22,-8.062820309785429e-26,-3.6115395034369614e-27,-1.2159899020697362e-27,1.4553530994062324e-19,-2.9868959683105666e-22,0.0006686496263751478,6.900234086898611e-26,8.171108146842723e-18,-1.4807640364340753e-21,-1.3732490638087374e-26,-8.709055163342482e-26,6.900229156480338e-26,0.0026669069089776875
1656060247605023040,598,1656060247603960752,odom,base_link_33,-0.7365058341129043,-0.46540537568762375,-1.3426651283843238e-14,2.134542087714798e-15,4.986045265110501e-16,-0.6862769188704256,0.7273403540473437,0.0033429371333595546,8.196992873034876e-13,1.5037029008283598e-20,-2.139040909775533e-24,-1.9725348603991568e-24,3.011672995425568e-09,8.196992875152458e-13,0.003342937128971585,2.6207219429406448e-20,1.094865703764103e-24,1.7187636697803037e-24,5.440343322013594e-10,1.5037016916623643e-20,2.6207212967057913e-20,0.004002147385953669,3.364885158803206e-10,-3.2645392933438432e-09,-7.358494523901598e-25,-2.1455032582148542e-24,1.1982632803573055e-24,3.364885158803205e-10,0.0020023783536230935,-1.1106732827481912e-17,1.358142933507913e-20,-1.9717270666396175e-24,1.8221612464457286e-24,-3.264539293343843e-09,-1.1106838706600319e-17,0.002002378353623083,-1.968934194235564e-20,3.0116729954255675e-09,5.440343322013598e-10,-7.32416329730638e-25,1.3581431152614657e-20,-1.9689341942354098e-20,0.004008065900158882,0.02199379326975759,-0.006120742562700343,2.9091312692131055e-15,1.0722481694196188e-16,1.7583286997652458e-15,-5.824646197434049,0.0034054044638972374,3.589006418447172e-16,2.2529867453112097e-27,2.9516672071002825e-28,1.576168049094399e-27,-1.0031642440519875e-20,3.589006418439094e-16,0.0034054044639146934,6.626431603856499e-29,-2.17833398964285e-28,-4.28384787093578e-28,-8.16850687375889e-18,2.2498313016903257e-27,6.626431603856499e-29,0.002668767243186574,-8.575934408679877e-19,-1.4016832312719205e-18,2.358757215483243e-25,2.9515439475838417e-28,-2.430892738826341e-28,-8.5759344086798385e-19,0.000668685389081929,-2.0892227689401365e-21,-8.022117828298758e-25,1.5256809511602542e-27,-4.536283360606503e-28,-1.4016832312719203e-18,-2.089222768943218e-21,0.0006686853890819294,-7.252415981223344e-25,-1.003329680172033e-20,-8.168508528120115e-18,1.8417693326376007e-25,-6.988141569569408e-25,-7.252415981193252e-25,0.002666954583166734
1656060247671507385,599,1656060247670633554,odom,base_link_33,-0.7374361286165367,-0.46558969824400265,-5.1084895862085755e-15,1.005480028568551e-15,-2.8098626312720873e-15,-0.7285077999198243,0.6850375066052787,0.0033431291284839078,-8.9184443496093e-13,3.711832180218154e-20,6.157336674870821e-24,-2.5356719870414035e-24,1.3919476191072096e-09,-8.918444348567053e-13,0.003343129128336862,-1.7546113754054517e-20,3.1114956299899008e-24,-1.9257413935413353e-24,-1.2813038841104377e-09,3.7118295952787395e-20,-1.7546165452842802e-20,0.004002376265955619,-1.2474127167558318e-09,-1.5138446976688833e-09,1.9500641577063412e-26,6.1912640042973806e-24,3.1114956303750868e-24,-1.2474127167558322e-09,0.0020023429639226564,-7.963662439392545e-18,-1.9805923227971584e-20,-2.5356719870414035e-24,-2.0291389708800834e-24,-1.5138446976688835e-09,-7.96371537895175e-18,0.002002342963922651,-2.5767033558694543e-20,1.3919476191072096e-09,-1.2813038841104377e-09,1.9500641577063412e-26,-1.9805921208487667e-20,-2.576702750024279e-20,0.004008295778803332,0.007738286218113899,-0.011767547038687098,2.7842311789427754e-15,2.209718341404571e-15,-1.6185008639518701e-15,-4.130014004651457,0.0034055974257276673,3.350185318111737e-16,1.8932661725304283e-29,1.2933384765959775e-27,5.76520946951038e-28,-4.087041779457825e-18,3.350185318095581e-16,0.0034055974257436866,-1.87906667623645e-27,-1.8557879558213237e-27,7.523748439582205e-28,-8.17450441330505e-18,1.199068575935938e-28,-1.9058879470139645e-27,0.0026689198321539448,1.9076083650543076e-19,-1.8507256145851738e-18,-2.3829910224916325e-26,1.2428513786618327e-27,-1.8557633039180355e-27,1.9076083650543076e-19,0.0006687235362947624,6.17669338573805e-22,7.17132164561138e-26,5.76520946951038e-28,7.523871699102319e-28,-1.8507256145851722e-18,6.1766933857072355e-22,0.0006687235362947625,2.882982447773831e-26,-4.087041753608431e-18,-8.17450428405808e-18,-2.706108449270159e-26,7.17132164561138e-26,2.882982447773831e-26,0.0026671025113578334
