%time,field.header.seq,field.header.stamp,field.header.frame_id,field.child_frame_id,field.pose.pose.position.x,field.pose.pose.position.y,field.pose.pose.position.z,field.pose.pose.orientation.x,field.pose.pose.orientation.y,field.pose.pose.orientation.z,field.pose.pose.orientation.w,field.pose.covariance0,field.pose.covariance1,field.pose.covariance2,field.pose.covariance3,field.pose.covariance4,field.pose.covariance5,field.pose.covariance6,field.pose.covariance7,field.pose.covariance8,field.pose.covariance9,field.pose.covariance10,field.pose.covariance11,field.pose.covariance12,field.pose.covariance13,field.pose.covariance14,field.pose.covariance15,field.pose.covariance16,field.pose.covariance17,field.pose.covariance18,field.pose.covariance19,field.pose.covariance20,field.pose.covariance21,field.pose.covariance22,field.pose.covariance23,field.pose.covariance24,field.pose.covariance25,field.pose.covariance26,field.pose.covariance27,field.pose.covariance28,field.pose.covariance29,field.pose.covariance30,field.pose.covariance31,field.pose.covariance32,field.pose.covariance33,field.pose.covariance34,field.pose.covariance35,field.twist.twist.linear.x,field.twist.twist.linear.y,field.twist.twist.linear.z,field.twist.twist.angular.x,field.twist.twist.angular.y,field.twist.twist.angular.z,field.twist.covariance0,field.twist.covariance1,field.twist.covariance2,field.twist.covariance3,field.twist.covariance4,field.twist.covariance5,field.twist.covariance6,field.twist.covariance7,field.twist.covariance8,field.twist.covariance9,field.twist.covariance10,field.twist.covariance11,field.twist.covariance12,field.twist.covariance13,field.twist.covariance14,field.twist.covariance15,field.twist.covariance16,field.twist.covariance17,field.twist.covariance18,field.twist.covariance19,field.twist.covariance20,field.twist.covariance21,field.twist.covariance22,field.twist.covariance23,field.twist.covariance24,field.twist.covariance25,field.twist.covariance26,field.twist.covariance27,field.twist.covariance28,field.twist.covariance29,field.twist.covariance30,field.twist.covariance31,field.twist.covariance32,field.twist.covariance33,field.twist.covariance34,field.twist.covariance35
1656060245779133504,1140,1656060245733169317,odom,base_link_10,-0.8315499736024474,-0.27621405555765344,2.9719270189684215e-19,6.603129437711645e-19,-1.5655043804917146e-18,0.9476643602590901,0.31926832021785306,0.0001315795968431688,3.174584991263891e-17,1.3804776475066152e-30,1.44773333645719e-27,1.0041667125596048e-27,1.9230754639528645e-13,3.17458499643377e-17,0.0001315795968431844,-1.885444076239972e-28,-9.254278298386403e-28,6.204858264969591e-26,2.1559086862342177e-13,1.403337899406789e-30,-1.9894204137744423e-28,0.0001574948124786885,5.2865214813902073e-14,2.6936611804999404e-14,9.022104874341906e-31,2.157020486020474e-28,-1.0023511000182017e-27,5.286521481059335e-14,7.97447362720484e-05,-9.634267983970644e-19,-6.075458585194146e-30,-2.277708508093454e-28,-1.6797125798434353e-26,2.693661180169068e-14,-9.634247871677875e-19,7.97447362720496e-05,-1.0568381416999937e-28,1.9230754628940733e-13,2.1559086862342177e-13,2.526204950842268e-31,-5.4978222437093435e-30,4.863402359060551e-28,0.00015749584641191854,-0.0057538435501258,0.011500957351768561,6.649214009831231e-19,7.77624280042604e-18,-4.866205455323062e-18,-2.8429287576907316,0.0007641262000252769,8.505290548177231e-18,1.1421118963321653e-28,-1.2725669776110876e-27,9.669392588489693e-28,-6.094266593531614e-14,8.505290503169617e-18,0.0007641262000253307,-2.477504245670746e-28,1.909248940700198e-27,-1.5870444829467865e-27,-2.41931655409924e-13,1.3198836928353144e-26,-2.4492090474775954e-26,0.00010566172361375372,3.5435682209817445e-19,1.8542100041954106e-19,-2.0425219335914596e-25,-1.0773747575407422e-27,1.6072330754445985e-27,3.5435682209817445e-19,2.7905495512175235e-05,-9.03617419939411e-24,1.6434423977218472e-26,9.669782652394905e-28,-1.5871221161648794e-27,1.8542100041944245e-19,-9.036174201753374e-24,2.7905495512175126e-05,-1.0952858613286447e-26,-6.094266593542111e-14,-2.41931655409924e-13,2.3977654414760155e-27,1.6510341993049725e-26,-1.095364792014245e-26,0.0006112703565331234
1656060245812361565,1141,1656060245769439220,odom,base_link_10,-0.831776974227871,-0.2761763363844016,-9.0801637066428e-18,3.0501077641913214e-19,-1.4450601744994063e-18,0.9254562960329383,0.37885438381124,0.0019450816786045254,-6.38190232644024e-12,-5.217943993159301e-25,-1.1734434215406443e-25,-1.366905912181154e-25,7.320919484484422e-08,-6.3819023264695456e-12,0.0019450816457774389,-2.886937803286192e-24,-8.820753239506478e-25,-1.6191147149931918e-24,-1.3731458592998172e-08,-6.251920661565947e-25,-1.6121826976092218e-23,0.002178175302929135,7.371788210172293e-12,4.696538797334901e-12,-1.499678049380599e-25,1.5370148693235749e-24,-8.820558706917796e-25,7.371788210159058e-12,0.0010900604784086622,-1.8351723460691607e-15,-4.908518126091882e-27,-1.7910403217029716e-24,1.1615766628533897e-23,4.6965387973415185e-12,-1.8351723460691394e-15,0.001090060478410371,-1.1150267088121024e-25,7.320919484484422e-08,-1.3731458592998146e-08,-3.888734380748193e-26,-5.371448142408963e-27,-8.106690783632869e-27,0.0023336903889075917,0.005685324800183435,0.002994810176862482,-2.5968856696186815e-18,1.043569798434856e-17,3.4472230981173434e-18,-3.507061675544594,0.0009070147921347272,-9.572966506777512e-25,-3.440698738459721e-30,-1.3186035379453385e-31,-6.783378420711759e-30,-4.16545598215259e-21,-9.572972669753334e-25,0.0009070147921347273,1.1769347935153916e-29,-6.752550467778361e-30,-3.847440589682776e-33,-1.8357479939511947e-20,-7.288915510831547e-30,8.036013796370533e-30,0.0014527680651308002,9.137522966599606e-15,5.8214816074393194e-15,-3.8671195326166883e-29,3.0613796446092896e-32,9.677445336518163e-32,9.137522966599571e-15,0.0003645963983297356,-2.1975977615245642e-18,-7.826563932142508e-30,6.594415768101314e-32,-6.548340117514189e-33,5.821481607439296e-15,-2.1975977615246894e-18,0.00036459639832973765,-4.178932074021904e-29,-4.1654560137070266e-21,-1.8357479964755496e-20,2.0292223549449917e-27,-1.339104694924206e-29,3.558661195642325e-27,0.0007256652566116428
1656060245845826481,1142,1656060245797246695,odom,base_link_10,-0.8322333245337826,-0.27558951010747085,-1.9307427252797497e-18,1.5207083924440718e-18,7.2739217034389e-19,0.9089315143506496,0.4169454427382974,0.0033354653130127617,2.631243033355138e-12,-3.769191969876847e-24,3.810425488073727e-24,-2.6753735218410043e-24,-4.833558694331869e-08,2.6312430334347556e-12,0.003335465355706887,1.0119663361050724e-24,-1.2762735010280217e-24,1.2456247224591364e-24,-4.168668028503224e-07,-3.769180222962811e-24,1.0689108867233137e-22,0.0016704470717247995,1.3561289586176698e-13,-2.062936279742123e-13,4.186292794992819e-25,-2.344175899319145e-22,5.083610216874161e-23,1.3561289587500187e-13,0.0008362215011797334,1.817190959425305e-17,8.205320157848864e-25,-2.1112488580709698e-22,5.33580015053087e-23,-2.0629362794774252e-13,1.8171909594354025e-17,0.0008362215011797156,-4.291922797422188e-25,-4.833558694331911e-08,-4.1686680285032223e-07,5.656398186843027e-27,-5.571046718680564e-27,7.385759525825443e-27,0.004002139043398884,0.026930159086999014,-0.0035901336862935516,1.5407024387545634e-18,-3.087772735262419e-18,1.2674739300813366e-18,-2.986787075303038,0.0006954534713300575,-3.740967500359978e-25,-2.360411464353592e-31,-2.7316433745211265e-31,-2.7359157285385284e-31,8.179625987714532e-25,-3.740967492656258e-25,0.000695453471330058,7.322765207521402e-32,-3.828941256260179e-33,8.773807431910035e-34,2.3115305536260865e-24,-2.340993000151394e-31,4.0459694100206595e-31,0.0011142969012633843,1.0447809902924436e-16,-1.5873318619822246e-16,-1.5356939423823108e-28,1.5162919383083218e-32,-2.5573276654341433e-33,1.04478099029227e-16,0.00028006654098433197,1.3874752352918994e-20,7.373374880406161e-30,1.4740063064514037e-32,7.177252118487327e-34,-1.5873318619819248e-16,1.3874752352541126e-20,0.0002800665409843319,-1.2340182963882856e-30,8.176906574633057e-25,2.3115305536260865e-24,5.566359463125178e-28,8.34975212632791e-30,1.959132883686358e-29,0.0005564160851932548
1656060245879160171,1143,1656060245835951090,odom,base_link_10,-0.8341148153315271,-0.2733519627092008,1.4406685037286868e-18,-7.045483721541597e-19,-4.992039450747886e-19,0.8742601555949591,0.4854577019051999,0.005270719074651745,2.462013260923107e-09,1.1318509484210737e-23,-1.359282652938917e-23,8.566175089543065e-24,-3.6070798119896295e-06,2.462013260928189e-09,0.0052707177061095,-1.7996079300694078e-23,2.1057885917928874e-23,1.0196849765063315e-24,-2.7410332799057863e-06,1.6789146240837512e-21,-1.6599495955551036e-21,0.0023242619231595278,-3.213138437591026e-14,-1.889974662465511e-12,8.978905267809208e-27,-2.6827721210129565e-23,-8.482122678410822e-23,-3.213138437921898e-14,0.0011631283241411213,-3.6365902608750575e-17,-1.2721778472191606e-25,8.566164885149956e-24,1.695085568292127e-21,-1.889974662465511e-12,-3.6365886643922415e-17,0.0011631283241391307,-8.160460644076993e-25,-3.6070798119896312e-06,-2.7410332799057863e-06,1.6328847705549738e-26,-1.5949669387331214e-26,-1.7903357681777754e-27,0.006324403159699226,0.07773734467210275,-0.0006079564628528518,-2.7807471082284887e-18,-4.428782869404117e-18,8.344086418106352e-19,-3.968436258539445,0.0009678758559915564,-1.5941702289987584e-24,2.132509693047453e-30,-4.2913895612020027e-32,5.746750114811596e-30,1.0233281418157112e-24,-1.594169033381449e-24,0.0009678758559915566,-8.870633043544854e-31,-7.3218777105779675e-31,7.156699225363818e-31,-1.1826532452408337e-25,-1.3649295539080728e-30,-9.004325349663685e-31,0.0015501731200278262,-4.7845861603528665e-17,-2.8144522686176654e-15,-3.871448841650037e-30,-3.4100071126327467e-32,2.3540701131484618e-32,-4.7845861603529404e-17,0.0003890332867262667,-5.395986391809732e-20,2.1650612480051694e-29,-3.042386863326451e-31,-2.1980195978038312e-32,-2.8144522686176347e-15,-5.3959863932041785e-20,0.00038903328672626366,-2.2711032351841703e-29,1.0234267864067188e-24,-1.1816667993307581e-25,4.527395588963747e-30,-3.6178052423328454e-28,3.69976159941493e-28,0.0007743538579849936
1656060245912366481,1144,1656060245866539478,odom,base_link_10,-0.8389068322556837,-0.27011769850042705,-2.0831519691514038e-18,6.1594883124764e-20,-9.161684584346494e-19,0.8530351612670792,0.5218534407686206,0.00012732427674591856,4.044933279329578e-16,-2.526118519552554e-25,-3.1565593700291924e-28,5.0341564444244275e-25,-9.579244644416281e-13,4.044933279329578e-16,0.00012732427674558202,5.055251229968304e-25,1.3181842554898464e-27,-7.50226694112875e-29,-6.227901563058726e-13,6.165764037613723e-26,-1.2436027639064858e-25,0.00015238789433320746,5.085389774833133e-14,-4.199183364830642e-13,-5.328563275095546e-29,-8.738934922628282e-28,1.9581106742060814e-27,5.085389774833133e-14,7.719128881829502e-05,1.1876680479407648e-17,1.2370378621038043e-30,-6.080330102833451e-26,-1.9215078565146967e-27,-4.199183364565944e-13,1.1876680479401337e-17,7.719128881819668e-05,-1.3454665421772344e-28,-9.579244610534964e-13,-6.227901563058726e-13,6.173391773450541e-29,1.2353147550771148e-30,7.446188243391134e-31,0.00015238929682151459,0.0945783117689469,0.01084042755610969,1.7497433255152025e-18,-5.158102652017889e-18,-3.770409697348549e-18,-2.5498798608192246,0.0007650744389494329,-6.946617375275827e-17,3.219257875427048e-27,-8.596122131176666e-27,-1.0671431843892903e-26,-9.412212316372086e-14,-6.946617370567181e-17,0.0007650744389501545,1.4151091151088659e-27,-1.0097284187844883e-27,5.251613934815232e-27,9.063254673933195e-13,-2.364205636666039e-25,5.270796105402903e-27,0.00010225711801035704,3.199604879254391e-19,-2.6452016634491296e-18,-8.598843774125351e-27,2.6057381631927066e-26,-2.4549513540865622e-26,3.199604879254884e-19,2.7054387208271078e-05,9.353031724789288e-23,1.902679467192547e-26,-7.117447707032054e-26,2.9598930621650656e-26,-2.6452016634483407e-18,9.353031725039659e-23,2.7054387208271186e-05,1.396883832332406e-26,-9.412212316370805e-14,9.063254673933231e-13,-8.5231634790618e-27,1.8965584971714677e-26,1.40403369988987e-26,0.0006120345946610733
1656060245945705741,1145,1656060245902642727,odom,base_link_10,-0.840697315110588,-0.2675972766373616,-3.406077943589599e-19,-2.8721759977742757e-18,6.568182860911653e-18,0.8198447666979494,0.5725858525304175,0.0019324947417225858,8.497439551696152e-10,-1.8650208927838433e-24,8.926970236195318e-24,1.7637743838333754e-23,-4.413788615250496e-07,8.49743955169693e-10,0.0019324940284520227,4.994103310137541e-24,-1.4300392659606823e-23,-2.745355102298291e-23,-2.934309349301896e-07,-1.8480874671438754e-25,4.994100079621255e-24,0.0021681754002366624,1.3576266080656543e-11,-6.504690123829366e-11,9.089095078254333e-28,1.223569188153756e-23,-1.4300391083097464e-23,1.3576266080656543e-11,0.0010850595704232989,4.524804469466564e-14,2.434432288574462e-27,1.7637743851573112e-23,-2.7453551052412774e-23,-6.504690123818778e-11,4.524804467331608e-14,0.0010850595702159402,-1.0809747712007908e-26,-4.413788615250496e-07,-2.934309349301896e-07,-1.1883312089856381e-28,1.6266343269869548e-27,2.5755828439574773e-27,0.002318584560204923,0.08572703296115226,0.01250134223136488,-1.2768991757026016e-18,-5.575475987560286e-18,-4.8219453110059715e-18,-3.3589202196219707,0.0009028479137482448,-3.2341132307174235e-24,-4.662041323426371e-30,2.847040626098153e-31,-5.904428437729401e-29,-2.2913531607818794e-20,-3.2341219821430908e-24,0.000902847913748245,4.9586867528637644e-30,1.3621830785493913e-30,4.150431165980702e-30,3.295142829457858e-20,-4.685537786389166e-30,4.976641585008225e-30,0.0014461009596376433,1.664275866206663e-14,-7.973915291869024e-14,5.6507316622262046e-30,3.0698829403580117e-31,-4.464468639873074e-31,1.6642758662066542e-14,0.00036292677655397554,5.3531293264895495e-17,7.606298714925837e-30,-1.1682624732947766e-30,5.331747010333733e-31,-7.97391529186899e-14,5.353129326506061e-17,0.00036292677655373024,-8.344420518914189e-30,-2.2913531607818794e-20,3.295142834506568e-20,-2.5649315693414237e-28,7.610541311639342e-30,-2.6587589621105002e-30,0.0007223316512909844
1656060245979244866,1146,1656060245933309078,odom,base_link_10,-0.8393708796205618,-0.26811911295710533,1.1547448418566088e-18,-3.902871365795778e-19,5.499132671813946e-19,0.7908919106101729,0.6119558691044561,0.00013287897979428987,1.0081929099574762e-15,-1.5650296497441892e-26,1.7685265629406605e-27,2.1732724527916025e-29,-1.336415727769811e-12,1.0081929116118375e-15,0.00013287897979310766,-1.2163001946444159e-27,-6.0694038428381345e-28,2.5249633606107703e-25,-6.846468434265412e-13,7.980157100267624e-27,-8.627178239071312e-28,0.0001590540757093863,-3.00803095508309e-14,-2.2505083520734798e-13,9.345052420799795e-30,1.6868718153396608e-27,2.667944312292067e-29,-3.008030955248526e-14,8.052437663359942e-05,-4.034808776815266e-18,-1.0471829270991638e-28,6.213659339836617e-29,-6.100598430716578e-26,-2.2505083520734798e-13,-4.034808776821577e-18,8.052437663357145e-05,-5.0446747438248534e-29,-1.336415727769811e-12,-6.846468425795082e-13,-2.5311994771980663e-30,4.933704361064693e-28,-2.8657446794078818e-30,0.0001590551053283337,0.04837784203978556,-0.006986587825019506,3.1164884635519007e-20,-2.708933813918812e-18,-4.476496965979442e-18,-4.054104869861823,0.0007670313822097184,-6.859596886524887e-16,-1.664798412973195e-28,-3.4555613859464995e-27,1.840842086765251e-27,-3.1612712901268167e-13,-6.859596886914307e-16,0.0007670313822119087,4.844298679015251e-29,-2.3840262569893882e-27,2.4393752775326145e-27,1.2937408960884418e-12,6.411892998555204e-28,5.16509013552899e-29,0.00010670123718654694,-1.9847464325783244e-19,-1.5593164794586285e-18,-8.253002958082434e-25,5.573530308480634e-26,-1.735498391601885e-27,-1.9847464325783244e-19,2.8165405436060835e-05,3.107661646671192e-23,2.176349915033808e-26,5.732271654880565e-26,-1.0782699375121335e-26,-1.5593164794586285e-18,3.1076616464400805e-23,2.816540543606089e-05,4.529951679309848e-25,-3.161271290122746e-13,1.2937408960880218e-12,1.0725232878756588e-27,2.1745287074678456e-26,3.9293283648275514e-26,0.000613593041960726
1656060246012455244,1147,1656060245969547749,odom,base_link_10,-0.8397744736531606,-0.2676107468992518,-5.197712704728891e-18,2.850837220805396e-18,2.198003010318515e-18,0.7526765846063153,0.6583904305086553,0.0019448198612936638,5.664585342809971e-11,-5.083257503626423e-25,9.384869855223566e-25,-5.58184601372956e-26,-2.8370116474089974e-07,5.664585342818203e-11,0.0019448193616975612,5.745968074169359e-24,-6.875670528056298e-24,-4.655379947305943e-25,-3.1763386230709125e-08,-7.127343548210292e-24,5.758785311445169e-24,0.0021763015165208207,1.187211248888924e-13,-3.268281999750407e-11,5.1561671719168474e-27,8.350864877952528e-25,4.606390080624329e-23,1.187211248886856e-13,0.0010891242247815518,2.0437491649933794e-16,-8.316711701203965e-27,-5.58330665386733e-26,5.2474135238267094e-23,-3.268281999753054e-11,2.0437485582847486e-16,0.0010891242247244447,-5.558668363820485e-27,-2.8370116474089974e-07,-3.176338623070918e-08,4.909119318369456e-27,-8.316709909796676e-27,1.7298479097069774e-27,0.0023333756776345834,0.01657221505406871,0.007423960440061551,5.859353438398255e-19,8.694181464476184e-18,3.500168508696136e-18,-3.319520930400999,0.0009062343108703434,-3.045402060555921e-23,5.372253460256111e-30,5.475962892693212e-31,-5.589024516358619e-29,-3.302047783234888e-20,-3.0454029332332975e-23,0.0009062343108703434,-1.2331762337951996e-30,6.856016998242824e-30,-6.953884443988261e-30,9.717313081208831e-20,4.118011216139042e-30,-1.2576026390625678e-30,0.001451519021819745,1.469840411043523e-16,-4.046363232715855e-14,-4.8954938202456e-29,6.961393807757999e-31,-1.068391403464395e-31,1.4698404110435028e-16,0.00036428497456985633,2.4452228604711004e-19,-3.649798497514591e-29,1.148174177478836e-30,-1.6620445069415066e-31,-4.0463632327158074e-14,2.4452228649633104e-19,0.00036428497456978797,1.4121028640479203e-29,-3.302047788283598e-20,9.717313091306251e-20,1.8820925305761983e-27,-3.650111023699719e-29,-3.468843457176098e-27,0.0007250409395521793
1656060246045745221,1148,1656060246000887871,odom,base_link_10,-0.8398419843373397,-0.26661929198790346,-1.4623514307508579e-18,-3.9590175991550983e-19,-1.0471804966516885e-18,0.7205134426453924,0.6934409700668722,0.00017871495167408324,5.527899854624903e-17,2.687994088076027e-28,-4.68393910793009e-28,-2.8678791906567963e-28,-3.498908686976656e-13,5.5278998649646604e-17,0.00017871495167389763,-6.2719929139222e-26,1.1184349988032885e-27,1.164710119452307e-27,-1.3401951019595827e-13,1.5698373475934877e-28,3.2495630400670025e-26,0.00021405722639463213,-3.193024561614954e-14,-1.1752049812062825e-13,3.674685807450394e-30,-1.5950448167833119e-28,8.969448914375097e-28,-3.193024562276698e-14,0.00010802592897459341,-2.367149955373939e-18,-2.3072843473473824e-30,-2.8679529637418584e-28,1.2551337812553561e-27,-1.175204981140108e-13,-2.3671479333278012e-18,0.00010802592897458604,-8.022889634505516e-31,-3.498908686976656e-13,-1.3401951019595827e-13,-1.5087046260151367e-30,-2.766218263503796e-30,-6.6321363447238125e-31,0.00021405827157010282,0.01851581378961679,-0.005265865004276849,2.251283608825837e-18,-1.7009379770132326e-19,-5.9473337750020736e-18,-3.49334736415957,0.000783962695847279,-9.187347615135899e-17,2.4208936686670143e-27,-1.2730382217688668e-28,-5.7658351101766006e-27,-1.9438118128280293e-13,-9.187347615113647e-17,0.0007839626958476619,-5.328267594124872e-28,1.3014436129727013e-27,1.509128112532729e-28,5.610779099759133e-13,-7.288750996215071e-26,4.0171674300946277e-26,0.0001433699914180431,-3.9362791766904267e-19,-1.4643464664206707e-18,8.097430824318118e-25,-3.9844615849117514e-26,2.1422842269311473e-27,-3.9362791766904267e-19,3.7332508518534086e-05,-2.4535418038641114e-23,4.139894803321391e-25,-4.3867560660052177e-26,1.395637275212195e-27,-1.4643464664207693e-18,-2.4535418064737465e-23,3.733250851853425e-05,4.501327578765907e-25,-1.9438118128321652e-13,5.610779099763202e-13,-1.913367866406295e-26,3.530217519473099e-28,3.6497088204442624e-26,0.0006270680461092112
1656060246090211591,1149,1656060246035933256,odom,base_link_10,-0.8397452430038697,-0.2657273401089909,-6.342297428137886e-18,-6.001938173966135e-18,1.293022676533077e-18,0.6766168147279229,0.7363353081493782,0.0019309903424627973,-2.231030702842536e-11,9.43600398657949e-25,9.99983839797142e-25,-1.2924986394645213e-24,-1.4177795986766429e-07,-2.2310307028421888e-11,0.0019309902538824542,4.09831239210089e-24,4.4640293745443854e-24,-6.3694148799674e-24,3.3692563011691634e-08,-5.673842371831717e-24,4.0982568324017756e-24,0.002104709193594627,-1.3875537301227653e-12,-9.194201583861595e-12,-8.481488290711768e-27,6.893643188043247e-24,2.8038652057194356e-23,-1.3875537301227653e-12,0.0010533345291563047,-9.185555353907178e-16,7.003317357666135e-27,-1.292495073091597e-24,-6.36941474933838e-24,-9.194201583861595e-12,-9.18555550632192e-16,0.001053334529150373,6.522149446125873e-26,-1.4177795986766429e-07,3.3692563011691634e-08,-8.47970531538898e-27,-9.623834697454549e-27,1.35238511761839e-26,0.002316781719272337,0.02561480929360734,-0.0036596624256468153,1.8450847627835102e-19,2.139649561292891e-18,-4.713820754878011e-18,-3.5031261011599484,0.0008764001105245707,-4.126504654059021e-24,-1.9518841234082193e-30,-1.0849418636813889e-29,-1.1073610533273808e-29,-1.827256175150287e-20,-4.1265035940271795e-24,0.0008764001105245708,4.661812104840423e-30,1.3145229502689233e-30,4.8563247695030286e-32,4.481085845403524e-20,-2.2132349170590082e-30,4.708263539195731e-30,0.001403794665903331,-1.6299841771720681e-15,-1.08005894269914e-14,2.1600148328491676e-30,-4.658695241540421e-31,1.9800256181802124e-32,-1.6299841771720407e-15,0.0003523762406708366,-1.0513063626361647e-18,7.14991058684774e-30,-4.681815619033186e-31,1.6447219307817891e-32,-1.0800589426991281e-14,-1.0513063625554686e-18,0.0003523762406708298,8.447549630099923e-30,-1.827256177674642e-20,4.4810858555009436e-20,-4.7145832289985134e-29,-2.573530952430948e-29,-2.7113437516822074e-27,0.000701173164932466
1656060246138844260,1150,1656060246067073584,odom,base_link_10,-0.8398248585564758,-0.265624378356257,-1.614952152565093e-18,-6.026314857841574e-19,1.1937907536664395e-18,0.6189976289899984,0.7853928541212737,0.00015949841295591653,-4.113123987280773e-17,2.7796230898433867e-28,9.817798380884691e-30,-9.63753812803929e-30,-4.568149185001633e-13,-4.113123992450652e-17,0.00015949841295574696,1.1672817627376122e-27,-1.277477841408454e-25,-2.2172166030551226e-27,1.0416897752100595e-13,2.3172454074977237e-28,9.693899263979243e-28,0.00019099739323197675,-3.659146034626118e-15,-1.0793780026767571e-13,8.786462727422697e-31,-2.858550554357703e-29,2.9929127848009365e-26,-3.659146035039708e-15,9.64960299006841e-05,-4.695501013834844e-19,2.1813088033489556e-29,-9.639395930739207e-30,-1.9098661858990682e-27,-1.079378002809106e-13,-4.695480925649665e-19,9.649602990067759e-05,-1.416294682298288e-30,-4.568149180766469e-13,1.0416897752100595e-13,1.0337889472737003e-30,-1.218614266454653e-28,-1.4091229802436617e-30,0.00019099842556386925,0.0192633439483547,-0.0008566792556114791,-1.0123007841784193e-18,7.443503245278074e-18,-4.060276685632719e-18,-3.509776029604149,0.0007789279292064991,1.2237576979142557e-17,-5.454109517639074e-28,9.112761989507498e-27,-5.721767239794663e-28,2.2765199458800424e-14,1.2237576953037621e-17,0.0007789279292067969,-2.115907911945089e-28,8.766741061300845e-28,3.0432499814255642e-28,5.983043244870106e-13,-6.664176933819432e-26,-1.29650008661026e-26,0.00012799677911915137,-3.6435390910404943e-20,-1.0731633592626569e-18,-8.2052024593346095e-25,9.920315468373214e-27,8.766388272250974e-28,-3.643539091039878e-20,3.348927048731353e-05,-5.63245931437894e-24,3.489642175705982e-25,2.356163511361262e-28,3.043249055120106e-28,-1.0731633592627555e-18,-5.632459325416926e-24,3.3489270487313636e-05,3.580780654525884e-26,2.276519945797324e-14,5.983043244870107e-13,4.992473352181036e-27,-6.462608855951956e-26,3.580741211407889e-26,0.0006230719683607771
1656060246186237399,1151,1656060246102529287,odom,base_link_10,-0.839722998593193,-0.26495455102577153,4.008041584112176e-18,-7.810175329668228e-18,-1.7312677717781999e-18,0.5662732460882243,0.824217574894339,0.0019322899931642971,-2.3856670349415475e-11,-4.289622427400783e-25,2.11059406488588e-24,-7.075113621202092e-25,-1.2714839387826225e-07,-2.3856670349403045e-11,0.0019322899152643374,-2.9050123301377257e-24,8.5369268477076e-24,-2.5802213603813455e-24,3.584397871887129e-08,-7.046407139819425e-24,-2.905012330925307e-24,0.0021293266261712502,8.95543487645186e-13,-1.0523628743281783e-11,1.2020486672171131e-25,1.3868143992497962e-24,8.53694041808717e-24,8.95543487645186e-13,0.0010656409086152584,6.015560683766972e-16,-1.365514777592621e-25,-7.0751136260463045e-25,-2.5802213570707772e-24,-1.0523628743321488e-11,6.015560683766988e-16,0.0010656409086082094,1.412230215378472e-26,-1.2714839387826225e-07,3.5843978718871263e-08,1.3526934751031223e-26,-4.72406392063319e-26,1.9763442095379984e-26,0.002318340984477245,0.019266261965491045,0.0017510708738933047,4.198179756963447e-18,7.548039904268453e-18,2.274039143680673e-18,-3.6940986388249417,0.0008866589111613284,6.462478466508297e-25,6.458805483382072e-30,1.42659681519953e-32,2.934733194504627e-30,-9.615279382035957e-22,6.462478481915736e-25,0.0008866589111613284,-1.4098532691655347e-30,1.57981902751489e-32,7.354741709136558e-31,4.837671002795172e-20,6.431593119469857e-30,-1.4036210718116473e-30,0.001420204934203217,1.071318166170617e-15,-1.2589181968309034e-14,5.076871232285701e-29,1.5395948080883972e-31,1.473523886733846e-32,1.0713181661706214e-15,0.0003564708593568773,6.991034969646674e-19,-2.6877374806971607e-30,-1.0438394252508563e-32,-6.260716748120119e-34,-1.258918196830915e-14,6.991034969644785e-19,0.0003564708593568691,6.846404876611744e-30,-9.615277835868583e-22,4.837671002795172e-20,-1.5696210070153199e-27,1.806504281006647e-30,7.875075817413324e-29,0.0007093803734400279
1656060246186265352,1152,1656060246133532286,odom,base_link_10,-0.8383076050562267,-0.2641583003584393,-1.6175592938048654e-18,-1.7310856543459148e-19,-1.1651401249406302e-18,0.5285318829814141,0.8489134518148012,0.00014683838831814483,-3.074817398585254e-17,-3.105349180700608e-26,1.2539719591780698e-25,3.2271090619724654e-28,-3.467678908319075e-13,-3.074817393415375e-17,0.00014683838831804248,7.480108782337784e-28,5.332188940667534e-28,4.868226136163234e-28,1.1472212945887e-13,1.6405182077039622e-26,7.480584577312014e-28,0.00017580536870693913,-1.2655527996645047e-14,-1.0324106865695539e-13,3.287228100655281e-29,-3.1298580140823206e-26,8.942935612961227e-28,-1.2655527998299409e-14,8.890002858015186e-05,-9.830231661623836e-19,-6.307753311619437e-29,4.148186633038091e-28,6.399325925066051e-28,-1.0324106865033795e-13,-9.830231661623836e-19,8.890002858014622e-05,1.3765371954024322e-29,-3.467678908319075e-13,1.147221295647491e-13,-6.026393845001836e-29,2.4546989615842253e-28,-6.039051836863785e-29,0.00017580639529793992,0.020096770432505053,-0.0026796708417704744,-1.4657094574947964e-18,-1.9559516373134537e-18,3.541291502390697e-18,-3.8096725881440476,0.000775471685492595,-3.277813878682151e-17,2.3283377204921495e-28,-2.467600626811153e-27,1.581511750145427e-27,-6.278384573076609e-14,-3.277813896852208e-17,0.0007754716854927292,4.404136495198889e-28,-1.918406180450551e-28,-1.9532799320001548e-28,3.931313595472312e-13,1.6469543686752757e-26,-2.7644689011894135e-26,0.00011786876886300509,-1.0434390391238181e-19,-8.67371049057635e-19,-2.0812335560382266e-25,6.011798073330151e-26,1.481839795871013e-26,-1.0434390391243112e-19,3.095730834320196e-05,-5.7175283655444085e-24,9.944067041276817e-26,8.037575225957139e-27,-1.4240314728457374e-26,-8.67371049057635e-19,-5.717528367963858e-24,3.0957308343202013e-05,1.0565439689831262e-25,-6.27838457306612e-14,3.931313595472312e-13,-1.2959901513651249e-27,-3.976346285868068e-27,2.230389716708034e-27,0.0006203260708713992
1656060246230209760,1153,1656060246169312954,odom,base_link_10,-0.8372925922083964,-0.2633665039256339,5.203350515009838e-18,5.059400359711352e-19,-3.5167548013407985e-18,0.4702227588683017,0.8825477647370045,0.0019358784051045333,-4.344870162447329e-11,-1.7671843241078322e-24,8.0210115369638695e-25,2.144345449910319e-24,-1.0754854087320534e-07,-4.344870162442356e-11,0.0019358783680247294,-2.9404512229951327e-24,1.5988670437839081e-24,4.196118720260858e-24,7.103849855354107e-08,-1.767190578546307e-24,-2.9404639426527958e-24,0.0021488231598608483,1.0661541673196828e-13,-1.2123101454320737e-11,-1.276958358526538e-27,1.2382625867029376e-23,2.641427357383865e-23,1.0661541673217507e-13,0.0010753873993492986,7.344693808590573e-17,9.262956557949838e-29,2.3511389235812053e-24,-9.038770502272247e-24,-1.2123101454347207e-11,7.344697489107901e-17,0.0010753873993406206,-2.3365482656292946e-26,-1.0754854087320534e-07,7.103849855354107e-08,-1.2754728511764225e-27,1.0072724615721831e-27,2.305752881823168e-27,0.002322646832733005,0.032772783343686905,-0.015778251067536407,-3.0670916593678394e-18,9.552799234176307e-18,-6.893379133577513e-18,-3.7633221328271382,0.000894783774132654,-8.65144640683658e-25,-4.906909698545235e-30,7.363561486280909e-30,1.4214939480752737e-31,-7.286867758621281e-21,-8.651446391429141e-25,0.000894783774132654,4.1946396213358604e-30,2.439359397036846e-31,1.3470042414645075e-30,3.0636097001025316e-20,-4.987945947955908e-30,4.194641741851905e-30,0.001433201542355741,1.2936543984522954e-16,-1.4710036886337858e-14,3.484322652051277e-29,8.743208987612085e-31,2.2482511267804418e-31,1.2936543984523267e-16,0.00035971374811694464,8.637984050388518e-20,3.815769385709694e-29,1.404608835395505e-31,-2.225735644991381e-31,-1.471003688633799e-14,8.637984026083494e-20,0.00035971374811693445,-3.0542796688910597e-29,-7.286868061543869e-21,3.0636097001025316e-20,-1.750446908330084e-27,4.7948200243074477e-29,-3.2992872450384616e-29,0.0007158804135862157
1656060246245813252,1154,1656060246200896740,odom,base_link_10,-0.8372953638777972,-0.2631805776958888,-1.142983160799168e-18,1.8794412527465495e-18,-1.2285626621293964e-20,0.44431678484624515,0.8958697420406024,0.00018294688118633117,-1.4636170671448107e-16,4.501713957443797e-28,-1.0933038234286124e-27,1.2838077326285314e-25,-3.4544601883771894e-13,-1.4636170671448107e-16,0.00018294688118645694,8.030953528176614e-29,1.2474451177229084e-25,1.2643293681533602e-25,5.340394209446227e-13,3.0249437748831596e-28,3.020653007032884e-28,0.00021913555231445792,-1.939420617674785e-14,-1.4786710265563165e-13,2.5427864016416596e-29,-1.3199513161502059e-27,-3.26918320203899e-26,-1.939420617509349e-14,0.00011056510738738194,-1.9455459028126277e-18,2.68945831422594e-29,-2.928222565498699e-26,-3.1230037103265756e-26,-1.4786710266886654e-13,-1.9455499236934596e-18,0.00011056510738737002,6.283948507525277e-30,-3.4544601883771894e-13,5.340394209446227e-13,-6.220323580961626e-29,-2.9372651454702756e-29,-3.704998910633894e-31,0.00021913658708239483,0.02291870773074386,-0.0033501579209005063,1.872736344539196e-18,-1.8829201949212166e-18,-1.6269961505788821e-18,-4.148245204354316,0.0007900638138809465,1.64535933145976e-16,4.008318924647612e-27,-1.3655327247723782e-27,-1.4744758553677997e-27,3.00519102000146e-13,1.6453593298241605e-16,0.0007900638138815324,-1.3409719215860245e-27,-7.03711516294046e-28,5.110649931030712e-29,1.0263180861886539e-12,1.159286439092713e-25,-9.527626690855539e-27,0.00014675555048743942,-2.5646161558691166e-19,-1.9363231619592766e-18,4.267663042986938e-25,-2.702839196528889e-26,2.884058822696146e-26,-2.5646161558691166e-19,3.81789543843955e-05,-3.9788659427939034e-23,-8.84358908455228e-27,-5.688314934755006e-26,4.133997291606774e-27,-1.9363231619594738e-18,-3.9788659400109347e-23,3.8178954384395446e-05,-2.153915453186796e-25,3.0051910200055984e-13,1.0263180861882468e-12,1.3189617438624998e-26,-8.831247038779744e-27,-8.603132655604924e-27,0.0006319411828257423
1656060246286256842,1155,1656060246235903025,odom,base_link_10,-0.8361540248968815,-0.2628059390662491,2.009543253983095e-18,-9.559898233559111e-19,3.3836211053425004e-18,0.3811393177203393,0.9245176150229233,0.0019332672019881948,-7.38346122252954e-11,-1.3507200538381761e-24,-1.3484530419891042e-24,-5.070050628089248e-24,-1.263148499162229e-07,-7.383461222528761e-11,0.001933267204086896,-1.4896508867525248e-24,-1.3927487992002973e-24,-5.193437138710514e-24,1.281230521458084e-07,-1.3507200629755758e-24,2.4986591053386384e-23,0.002102363475593771,1.8313469470407603e-14,-1.092670130224767e-11,-1.2467545454287335e-26,-1.3484499450753101e-24,-1.3927511533326117e-24,1.8313469470407603e-14,0.0010521622791891906,1.1644814482905866e-17,1.9957745045831533e-26,2.13997317248595e-23,-3.207680913853879e-23,-1.0926701302234435e-11,1.1644784866366424e-17,0.0010521622791804157,-1.7755455546234706e-26,-1.263148499162229e-07,1.281230521458084e-07,8.624539873386131e-28,6.267493560186128e-28,4.708692311615287e-27,0.0023195139962427784,0.02861779852199511,-0.019672631694968662,-2.8406058443426482e-18,6.6611416087537754e-18,1.4051803287567396e-17,-3.9640490798035315,0.0008754234126992608,7.641781488432949e-24,-3.269160597979104e-30,-3.7771160070090396e-31,-8.244347769872464e-31,2.0077601821367576e-20,7.641781488432949e-24,0.0008754234126992608,-7.99629803358094e-30,3.9917632653721995e-31,9.010669086647386e-32,8.488968218578974e-20,-3.269222885565085e-30,-7.306886367166626e-30,0.0014022311143924364,2.1485587481961134e-17,-1.2819774499345079e-14,-2.5383671575008093e-30,-3.777116006205479e-31,3.6515914653437484e-31,2.1485587481961138e-17,0.0003519868968454714,1.331768589120095e-20,1.408297693623858e-29,-8.244348261995929e-31,5.860291268787331e-32,-1.2819774499345189e-14,1.3317686043334982e-20,0.0003519868968454614,3.046000305085075e-29,2.0077601846611125e-20,8.488968208481555e-20,-3.3153322161036786e-30,1.456671037499841e-29,-5.017118697842081e-31,0.000700391970379235
1656060246330226869,1156,1656060246266607761,odom,base_link_10,-0.8352804869927379,-0.2617231524901965,3.472008075179748e-18,-6.533360904962899e-19,-1.0994476045991344e-18,0.2586471791009057,0.9659718612584655,0.00013404723124081034,-7.996982491102559e-17,-1.2721010534701443e-25,7.729112259205237e-28,-1.2421394599238974e-25,-1.5028619095414466e-13,-7.996982480762801e-17,0.00013404723124106968,-6.878089145723476e-28,2.867991995326481e-28,6.30082683109746e-26,6.160452884275446e-13,6.174381090434098e-26,-6.0793616901126225e-28,0.00016045597790478611,-5.16930978179629e-14,-1.6737774181752731e-13,1.144024150031695e-29,7.7656118101880995e-28,2.8680210643613812e-28,-5.1693097821271624e-14,8.122532926129735e-05,-5.137677448845471e-18,-1.184213719208453e-30,3.2780645224275427e-26,-1.5488888459485106e-26,-1.673777418307622e-13,-5.137677448807606e-18,8.122532926128293e-05,4.1774028144751584e-29,-1.5028619084826554e-13,6.160452880040281e-13,9.116051023871387e-31,2.29620638343359e-30,-1.2245206688868317e-28,0.00016045700691812853,0.03559761500828701,-0.011462668764886257,-3.703459825692968e-19,3.3681630344709787e-19,1.5134239526166085e-18,-4.549661562193667,0.000767993286543434,1.270611841632851e-16,-2.0122686657560188e-28,3.149349995556406e-27,2.2778498620706603e-27,2.2912639067851096e-13,1.2706118406906477e-16,0.0007679932865437088,3.1286098668961496e-28,-1.814225063670237e-27,-1.1889297631958377e-27,5.256199965677788e-13,4.432120632876364e-27,2.4845574481474144e-26,0.00010763583943894134,-3.6370481173074573e-19,-1.1704535574284965e-18,-4.119294415731216e-25,3.1493539557645937e-27,-1.814215194755126e-27,-3.6370481173064713e-19,2.8399061224895783e-05,-5.307836929180682e-23,-1.0587491689862046e-25,-6.4396682666849814e-27,-1.2649464793519158e-26,-1.1704535574282993e-18,-5.307836929132533e-23,2.8399061224895674e-05,-4.734910014771293e-27,2.291263906785043e-13,5.256199965677787e-13,2.1001532241341243e-27,-2.4678018771596717e-27,-4.742978884809563e-27,0.0006143608594133992
1656060246378264139,1157,1656060246302953482,odom,base_link_10,-0.8340625298537626,-0.26149575038316847,-2.1840062053966698e-18,3.539615739910893e-18,4.623755131483172e-18,0.19680769719453003,0.9804421096245235,0.0019513402091315695,-6.247655046455544e-11,2.4771036731141218e-24,-7.545133991412402e-24,-8.805744383666932e-24,-4.646579890917698e-08,-6.247655046463607e-11,0.0019513404858186414,2.9828141918717636e-25,-1.8875332875518034e-24,-1.882588932060592e-24,2.1578572964897334e-07,2.4770834808546927e-24,6.915646182253248e-24,0.0021827246751132843,-3.634584288323549e-12,-2.4500924972896965e-11,-1.969599552440341e-29,-1.4162557487126312e-23,-1.990853503872106e-24,-3.634584288323549e-12,0.001092336224161573,-4.80589490383354e-15,-2.5213007929264277e-26,-8.805680092178877e-24,-1.8825858905899997e-24,-2.450092497288373e-11,-4.805894923775319e-15,0.0010923362241299103,2.2243809508488115e-26,-4.6465798909177024e-08,2.1578572964897334e-07,-4.863865048287379e-28,6.363868000057177e-28,9.299805081125484e-28,0.002341200578592413,0.03253656929747733,-0.011447862786910732,4.106880287557609e-18,-9.26282773241429e-18,-9.478096353335828e-18,-3.4953900531533044,0.0009089111409671701,6.435328114392301e-24,-5.655261738737848e-30,-2.7993131199764054e-29,-6.718230818516621e-31,1.4139051953884653e-20,6.435325378031036e-24,0.0009089111409671701,1.3748190488680588e-29,-6.130817355572875e-31,1.3956962027386064e-29,4.299919170013119e-20,-5.751003026221491e-30,5.798718036279097e-30,0.0014558012577177643,-4.5286874115656786e-15,-3.0528115045222274e-14,-2.2055358193137673e-29,3.0005372373049184e-31,4.8773522529268066e-32,-4.528687411565692e-15,0.00036535627321057813,-5.788407030577046e-18,5.629267932196612e-29,-6.898685385416482e-34,-1.9937337309091154e-31,-3.052811504522211e-14,-5.7884070304306596e-18,0.00036535627321053997,3.4423469505243486e-29,1.4139052332537887e-20,4.2999191801105384e-20,3.587505551334177e-29,5.62918558639288e-29,-1.374961327921839e-28,0.0007271825198628262
1656060246422259804,1158,1656060246333259106,odom,base_link_10,-0.8337626781179934,-0.26025695193256954,1.7677367914101589e-19,1.138752716405055e-18,4.17827762022366e-19,0.17591801580512118,0.9844048210544223,0.0001335942355554006,-3.6513359915309927e-17,1.1327274405892303e-28,-1.2820996291130324e-25,-7.798955508666123e-31,-5.273981419664309e-14,-3.651335981191235e-17,0.00013359423555575796,-4.160662099864106e-29,-3.1903745108609636e-28,-9.624770797368261e-29,6.346512420990198e-13,3.1998413917609324e-28,4.952151800423807e-30,0.00015991235853236537,-2.6292771397778953e-14,-1.6144011809609155e-13,4.4735812088007434e-32,3.055822991695594e-26,-3.1903568963132154e-28,-2.6292771396124592e-14,8.095348190218811e-05,-2.5040932166233285e-18,1.2670983094906553e-30,-3.3394254947803984e-28,-9.624492721249136e-29,-1.6144011810932644e-13,-2.5040922006967003e-18,8.09534819021738e-05,-1.5000937202172151e-31,-5.273981419664309e-14,6.346512420990198e-13,3.018332339320888e-31,-4.459754085942969e-31,-6.865320982031028e-32,0.0001599134122365108,0.034062986772985235,-0.005779688578725292,-1.021787176783274e-18,5.172727170454222e-18,-6.867318504916211e-18,-2.5210484203996946,0.000758014621114904,1.016395900938977e-16,-2.0651089042363535e-27,-1.3787529811708852e-28,-4.0036372113850016e-27,1.3225278414690652e-13,1.0163959004951336e-16,0.000758014621115222,5.143605014434742e-28,4.587616966018372e-28,7.092986596330237e-28,5.394544428590729e-13,-5.906920430612084e-26,1.7693293372878075e-26,0.00010727340575508596,-1.8357815685048748e-19,-1.1219217298230242e-18,-4.179415574398705e-27,-1.3804468149238599e-28,4.58830772078069e-28,-1.8357815685043818e-19,2.830831503763216e-05,-2.6316981072622823e-23,2.6518921533321404e-26,-5.762372821120655e-26,1.9077928380056914e-26,-1.121921729822827e-18,-2.6316981085189515e-23,2.8308315037632104e-05,-2.407734607868233e-25,1.322527841473202e-13,5.39454442859076e-13,-4.1578081184003804e-27,2.651971040268284e-26,-3.396616797965443e-26,0.0006063785125681761
1656060246422274211,1159,1656060246369374037,odom,base_link_10,-0.8327259615651811,-0.2594631797626683,8.058513183210923e-18,3.1966004973123268e-18,1.6651436444519383e-18,0.12049392795710695,0.9927140642327313,0.001939347577104431,-4.6133499425686605e-11,-6.203092199905457e-24,-5.84718574899947e-24,-2.8832856702379674e-24,-3.72040739692882e-08,-4.6133499425685597e-11,0.0019393478143853947,-1.3368253075490787e-24,-1.0665352448482643e-24,-9.954056470430344e-25,1.9833147027843706e-07,-5.388836256523541e-24,-1.3368252953462013e-24,0.00216887726152449,-1.7798071223227623e-12,-2.293451619410552e-11,1.000992335064855e-27,-3.231685826981274e-23,-7.6839368245993e-24,-1.7798071223227623e-12,0.001085411771587643,-2.1959111921493525e-15,-9.206308087864531e-27,5.0056274762830664e-23,5.622035922486688e-24,-2.2934516194118754e-11,-2.1959111921493107e-15,0.0010854117715595418,-1.636820240981946e-26,-3.720407396928819e-08,1.9833147027843703e-07,1.1001134384605918e-27,-5.99379160889217e-29,2.4402715702660303e-28,0.0023268096250657812,0.03493131159548924,0.010837907537828996,-1.0510087664680467e-17,8.911397338772135e-19,-9.081946027107979e-18,-3.104005786992718,0.0009031388921409861,9.589078926055405e-24,-2.795754525140479e-29,5.379826871740026e-29,-8.015631939299409e-31,7.291103929060544e-21,9.589078383713533e-24,0.0009031388921409862,-7.369744548201956e-30,1.6872423191040806e-30,2.0952231510458526e-30,4.220673212505653e-20,1.9288472156355656e-30,-7.402655193690536e-30,0.0014465695986865244,-2.189152560513711e-15,-2.820931739540278e-14,1.6313216257660944e-29,-2.293158075887505e-31,-1.8947764014981948e-33,-2.1891525605137204e-15,0.00036304807221360823,-2.6105890104173086e-18,-4.8853027317796694e-30,-8.006875707823661e-31,3.2179306949262105e-31,-2.82093173954026e-14,-2.6105890104172324e-18,0.00036304807221357484,1.7728628971323256e-29,7.291103941682318e-21,4.220673212505653e-20,5.001195740280313e-29,-4.989190232269431e-29,1.8370329237051898e-27,0.000722564217071632
1656060246470288207,1160,1656060246399924755,odom,base_link_10,-0.8317736418048781,-0.2602906153876106,-7.477270893099843e-19,-1.5959407568149844e-19,-6.2090519633875135e-19,0.07390394648766897,0.9972653642303776,0.00013302203119046688,-1.5020407956700294e-16,4.684549950983407e-28,1.1396625020834637e-27,1.3006126984852801e-27,-2.880389230556775e-13,-1.5020407936020778e-16,0.00013302203119069066,7.093323667755047e-30,-3.6407248778713277e-29,-3.993504965677468e-31,5.675766240766762e-13,4.687413961154779e-28,1.2872331492327095e-29,0.00015922572955354435,-1.56850468087815e-14,-1.22520655375874e-13,6.549925299239252e-30,-2.3500951636021802e-28,-7.224327329224104e-30,-1.5685046809608682e-14,8.061019213807797e-05,-1.2502915988637931e-18,-1.2838046025747334e-31,1.3006128446227378e-27,-3.99082598558294e-31,-1.22520655375874e-13,-1.2502926054881735e-18,8.06101921380694e-05,1.1717851518666647e-31,-2.880389230556775e-13,5.675766240766762e-13,-1.5339257864920996e-29,1.0042803981579802e-32,1.1611968685937112e-31,0.00015922676691612885,0.026206424008139283,-0.003560268005515983,-3.548131936139051e-18,-4.98850951039938e-18,-8.204414863261747e-18,-3.009340589267508,0.0007641410805076735,-1.2425253542719568e-16,-1.13298555949739e-27,-2.7455460001039708e-27,-2.9292965994712385e-27,-1.7400744014884358e-13,-1.2425253545750075e-16,0.0007641410805079966,1.2745225830785365e-28,3.854691158664427e-28,2.304159601687115e-28,5.331427998754835e-13,-1.1398941764497846e-27,1.244091411539487e-28,0.00010681566682757158,-1.0275128011648015e-19,-8.469296346609277e-19,4.359190593681803e-25,2.546687435753981e-26,-3.307813760533019e-27,-1.0275128011648015e-19,2.8193971348589324e-05,7.196997988679107e-24,-1.725559258611218e-25,-2.9293089262414066e-27,2.304036343440777e-28,-8.469296346611249e-19,7.196997992145781e-24,2.8193971348589215e-05,3.996789212890929e-26,-1.7400744014843637e-13,5.331427998758971e-13,2.0703659769389e-26,3.423222973919099e-26,3.9967892128911496e-26,0.0006112804596742561
1656060246479216355,1161,1656060246435946941,odom,base_link_10,-0.8306051096573475,-0.26021505434775855,-5.225549459866501e-18,-5.140093091042788e-18,4.726090580843826e-18,0.03705640929029295,0.9993131754012404,0.0019341380569107907,-2.340790156364815e-12,3.1607301875238813e-24,8.031797074436308e-24,-6.886155810943392e-24,-2.430404831777839e-09,-2.3407901563850757e-12,0.0019341382045916812,4.963013497294538e-26,1.0668139253730827e-25,-9.393880993220756e-26,1.5337814867331535e-07,3.1607294752332204e-24,6.254752031401131e-26,0.002163312492325154,-4.246133764717951e-13,-1.7601742903364574e-11,3.464655430947192e-28,8.031797066795736e-24,1.325308407052865e-25,-4.246133764717951e-13,0.0010826293974956326,-4.0230871582745934e-16,9.8392167902643e-28,-6.886156706947834e-24,-8.74765382072208e-26,-1.760174290335134e-11,-4.023086954322006e-16,0.0010826293974790604,-2.8447185229753113e-27,-2.4304048317778374e-09,1.5337814867331535e-07,5.483958049981114e-28,7.030110992647501e-28,-1.0057039974214543e-27,0.002320558289123207,0.03278407935805248,-0.00265839023106085,-9.016737934659892e-18,-1.011230505678081e-17,1.040803687914479e-17,-2.0491298799663142,0.0009008208810641953,-2.034290479104191e-24,-3.968998322539641e-30,5.631390388197191e-31,-2.7936891843323416e-29,-1.6208445825924554e-20,-2.0342937578073283e-24,0.0009008208810641952,1.3866233401555331e-30,-1.7968270965940733e-30,1.7469250566878317e-30,3.9667122147811705e-20,-3.716664883124228e-30,1.2788938757421961e-30,0.001442859688711436,-5.194702591406902e-16,-2.1533881176985178e-14,-7.022199139340611e-30,5.631387817319873e-31,-5.781177986128227e-32,-5.194702591406911e-16,0.00036212023236754096,-4.756524823015805e-19,3.824857836023352e-30,-1.3391166559316442e-31,9.196662942434469e-33,-2.1533881176985e-14,-4.756524824519145e-19,0.00036212023236752134,3.0550459195672535e-30,-1.620844567446326e-20,3.966712209732461e-20,9.856653487070878e-30,-9.098872325114104e-28,9.160864026729997e-28,0.0007207099302262415
1656060246522222951,1162,1656060246463996410,odom,base_link_10,-0.8293704505682404,-0.2603474193068889,-8.284382361540395e-19,1.164695305114675e-18,-1.5627929151403924e-18,-0.010313934139776274,0.9999468099666904,0.003336621598000458,5.927949809547042e-12,4.344984858154114e-24,-1.6734056650915762e-23,2.569931918460098e-23,8.157728903416887e-09,5.927949809512306e-12,0.0033366240372420647,-4.63402236033339e-26,1.3044783803336306e-25,-1.4020974572238472e-25,2.313639369348348e-06,4.345030631035962e-24,-4.6336683046451976e-26,0.0016849667537411272,-2.7807273589967755e-14,-1.2862039913744794e-12,2.7341594879565366e-28,-1.6734058780836294e-23,-2.831426189168059e-25,-2.7807273589967755e-14,0.000843481311306158,-2.7086979092284542e-17,1.247973097392868e-27,1.7330001035244527e-21,6.3738374862959425e-24,-1.286203991797996e-12,-2.7086966632371694e-17,0.0008434813113049648,-1.1657349237679271e-26,8.157728903415193e-09,2.313639369348348e-06,-2.9361256386367876e-29,1.4292734988167946e-27,-1.1401649036009062e-28,0.00400352663870017,0.044090830544915874,-0.008016005110914756,1.385613843962049e-19,9.761949333047737e-19,-3.693814059738514e-18,-3.3776164631348236,0.0007015034348608822,8.643236999485394e-25,1.3960643755034403e-30,2.4782092807213197e-33,-2.2367678727660928e-30,9.195055433227356e-25,8.643231976660099e-25,0.000701503434860882,1.4339763408778399e-30,-2.7837123063811483e-31,2.8791209800572276e-33,-5.2444454741141316e-24,1.4176391676943175e-30,1.4321009646325763e-30,0.001123976681394172,-2.1781336518639173e-17,-1.0075426223369887e-15,7.61533915980197e-29,5.302496834401362e-34,1.448910101252087e-32,-2.1781336518641046e-17,0.0002824864336440943,-2.1167704572688634e-20,3.458404185457843e-29,1.0609418254722234e-31,2.7980143445659985e-33,-1.0075426223369666e-15,-2.116770457683728e-20,0.0002824864336440932,4.054275179047221e-29,9.195055433227356e-25,-5.244445486440083e-24,-2.8691677196278754e-28,-5.730532746764218e-28,-5.566206267903893e-28,0.0005612560742989764
1656060246566213967,1163,1656060246502840996,odom,base_link_10,-0.8280264593749043,-0.2613017397440068,-2.8440112109393157e-18,1.136858765023845e-18,4.0792606906553153e-19,-0.09258104976271062,0.9957051517516792,0.0052788825038564005,3.2130858158343016e-09,5.724737084443488e-23,-5.608117108093033e-23,-2.166304093751376e-23,1.3971836927693391e-06,3.213085815834252e-09,0.005278904334552639,-1.2863907333678234e-23,1.0726370969805448e-23,4.339179368721172e-24,9.223537185321698e-06,1.631264840456384e-22,-1.2863967595448415e-23,0.0023326733460814824,-1.4657106807801012e-13,-3.0970607150151833e-12,-9.049883735133318e-28,-5.085339175073562e-21,4.342429020512646e-22,-1.465710681044799e-13,0.001167334071495369,-2.5800327162987977e-16,1.5258673441419826e-27,3.1276759503080113e-23,4.339173659233015e-24,-3.0970607152269416e-12,-2.5800327162987977e-16,0.0011673340714899894,4.45640263037089e-25,1.3971836927693391e-06,9.223537185321697e-06,-6.998445359938232e-28,-2.3860329419519802e-27,5.550080433068834e-28,0.006334202167693502,0.03540985513906693,-0.0245102292846459,-2.1560225238368487e-18,-5.777609764649452e-18,3.0454823307056578e-18,-4.242235348618804,0.0009713821376351885,4.164885837074862e-24,-1.1162855687506014e-30,5.6145647194603125e-30,-3.2591445619094788e-31,1.5046864439497061e-24,4.164886582794936e-24,0.0009713821376351886,-2.250381779848086e-30,-4.12682804933639e-32,-1.9234195034355277e-32,-7.3161491176217955e-25,-1.0641142449311328e-30,-5.243556113230905e-31,0.0015557807481429748,-2.1986088161935745e-16,-4.6457058749159984e-15,7.089849454528258e-30,-2.4171367143888844e-31,3.1515927028945597e-32,-2.1986088161936852e-16,0.00039043527889497424,-3.856504585988974e-19,-8.225625251911247e-29,-3.477395240635708e-32,-1.9305195887551175e-32,-4.6457058749162146e-15,-3.8565045859877235e-19,0.0003904352788949663,-7.869711267237633e-30,1.5044678724714335e-24,-7.3183348247008015e-25,-7.19399380035689e-30,1.4709694033787449e-27,-4.45525049253357e-29,0.0007771591889477877
1656060246614465059,1164,1656060246533210516,odom,base_link_10,-0.8263031546507351,-0.2603852018907346,-9.03564185790425e-19,3.549321601703398e-19,-4.442932107327363e-19,-0.1510450336443639,0.9885268826953433,0.0001330224802147473,2.9884910235035573e-16,-2.5445458786645142e-25,-2.526947275490958e-25,-2.3558651468598087e-28,3.909085749054849e-13,2.9884910235035573e-16,0.00013302248021570227,-3.1777156563015065e-26,-9.859961223026122e-28,1.658359350307189e-27,8.573012498470575e-13,6.261035909408163e-26,7.891889162273121e-27,0.00015922571791052447,7.614707630642289e-15,-1.507392443269104e-13,-7.031231071123647e-29,3.1365768304720373e-26,-9.165285367621242e-28,7.614707630228699e-15,8.061016882400919e-05,5.163945047745361e-19,-2.722210235081685e-29,-5.45211225085622e-28,1.730626932922522e-27,-1.507392443401453e-13,5.163945047745361e-19,8.061016882399618e-05,5.9926185029851565e-30,3.909085765995508e-13,8.573012498470575e-13,-8.025753214049226e-32,2.4719490980719436e-31,-6.247283689971276e-29,0.00015922714119499283,0.03206981269441505,0.0014468804352031378,1.050838231139436e-18,1.0987421352157584e-18,1.7540557083226355e-18,-2.0190556781157722,0.0007596110927474792,3.004219238480433e-17,4.459757267480146e-28,4.4557706154653654e-27,7.240117377376974e-28,1.391087014035885e-13,3.004219237105765e-17,0.0007596110927486753,1.1981904761597672e-28,-2.416633516931756e-27,-1.1899692298620762e-28,7.890867568876308e-13,-4.96899199842736e-26,-2.698793507703071e-26,0.00010681564939785809,4.617810966421725e-20,-1.0398764373814201e-18,6.0730837237215625e-27,4.455603567025216e-27,-2.517651008746569e-27,4.617810966431586e-20,2.8193902878785983e-05,-2.00917754359557e-23,2.0562918084118461e-25,-2.6010115094618316e-26,-7.041031163192675e-27,-1.0398764373812229e-18,-2.0091775436437183e-23,2.819390287878609e-05,1.1691161647787707e-26,1.3910870140359182e-13,7.890867568876341e-13,6.010642850946522e-27,-1.165972422766103e-27,1.1666349593528298e-26,0.0006076564425853933
1656060246614481630,1165,1656060246569387674,odom,base_link_10,-0.8251983069380565,-0.2607969319761259,7.523668419041501e-18,1.4136793966095703e-19,-6.152933090172635e-19,-0.18758400537139,0.9822485637194011,0.001941887223999077,5.431264046834163e-11,-5.283564952838731e-24,-1.2355771876783749e-24,-1.896362617434389e-25,4.7947246951667415e-08,5.4312640468346377e-11,0.0019418874139094727,1.3633347209071557e-24,3.2450917237999786e-25,-4.8878350918592845e-25,1.8039710713890468e-07,-5.283564978267589e-24,7.984010808123937e-24,0.002172610816910548,2.495544952519676e-12,-2.1345330050826334e-11,-3.5947513828764515e-27,-1.2356304321092807e-24,3.245296188033549e-25,2.495544952519676e-12,0.001087278332571855,2.849321058215357e-15,1.3072588305880874e-27,-2.665941533184099e-23,6.128663089451307e-24,-2.13453300508131e-11,2.849321047953848e-15,0.0010872783325478032,-1.1250702032741525e-26,4.7947246951667415e-08,1.8039710713890466e-07,-3.5875467598520065e-27,1.2783972050540553e-27,5.207749877158953e-28,0.002329856990816384,0.032854948698253734,-0.0018247336083692244,7.545657929466973e-18,1.6234119477713195e-18,2.1148790875844247e-17,-2.049721494992038,0.0009046950777461942,-2.809529593058831e-24,-2.5520720750360376e-30,7.738265702009385e-31,-4.998204320676434e-32,-9.777043760929543e-21,-2.8095252050200455e-24,0.0009046950777461941,-2.7814214603242477e-30,-8.919660792801953e-32,1.5711374862348812e-30,3.491060668612658e-20,-2.5522000465658943e-30,-2.7813844689634363e-30,0.0014490585715634056,3.079360348561753e-15,-2.6338924529625415e-14,5.383038209780618e-30,8.603421177075359e-32,-4.5635959581972015e-32,3.079360348561739e-15,0.0003636699522562121,3.3978111032922638e-18,4.818760583736214e-30,-4.82814353955734e-32,-1.4577527195271478e-31,-2.6338924529625825e-14,3.3978111033690487e-18,0.0003636699522561834,1.978008188592121e-29,-9.777043849281964e-21,3.491060668612658e-20,5.402177905245688e-30,4.474840691106557e-30,4.213570816510693e-29,0.0007238092664007222
1656060246658362680,1166,1656060246600835323,odom,base_link_10,-0.8238421732603007,-0.2619196870457721,1.365269491332365e-18,-8.081081564270557e-19,1.0807472326710911e-18,-0.20250350569782646,0.9792815377510649,0.0001779043293812987,1.1177398113068214e-16,-2.43818309219874e-27,1.4599291932262369e-27,-1.9028376933984395e-27,3.0561044282251607e-13,1.1177398113068214e-16,0.00017790432938152162,7.053842897706444e-28,-1.2776801210067266e-27,8.860727871628279e-28,5.794190285581717e-13,-1.552193298322504e-27,7.0591656753054985e-28,0.00021308448652693278,-7.300158742587918e-14,-2.5953904500444765e-13,1.0666326631445161e-30,1.9012359110053876e-27,-1.7189509243301546e-27,-7.300158742587918e-14,0.00010753957067072143,-1.0822169849397036e-17,-6.944049105471302e-31,-2.3439366593841615e-27,1.768692659163957e-27,-2.5953904500444765e-13,-1.0822167836167208e-17,0.00010753957067068695,-1.0208905724685645e-28,3.0561044282251607e-13,5.794190289816882e-13,1.534716305536152e-30,-6.943451293125512e-31,4.923892990102513e-28,0.00021308552449752095,0.0412793148849426,-0.012050404074474896,-2.0324028341618904e-18,-5.712618909516444e-18,-2.6197180872152157e-18,-2.759219344652038,0.0007866493770962111,-2.5555446697851444e-17,-3.0478325985601313e-27,-7.082321519468963e-27,-3.2372089506351646e-27,2.912382538816691e-14,-2.5555446766654684e-17,0.0007866493770968141,9.084401173822568e-28,2.651175786953267e-28,2.0516962256169798e-27,1.037104013237973e-12,2.673927407173424e-25,1.3259723342143413e-25,0.00014272150476211205,-8.982125141974604e-19,-3.2039498116981244e-18,1.0179855711726482e-25,9.324320613002593e-26,-3.7694004431180644e-26,-8.98212514197545e-19,3.717043056418912e-05,-1.3273163378629936e-22,4.743579685793344e-26,-1.3716931331605418e-25,1.0672969115014966e-25,-3.2039498116991105e-18,-1.3273163379248933e-22,3.7170430564189335e-05,-2.4689925072315912e-27,2.912382538821684e-14,1.0371040132379727e-12,-1.4123814821861128e-27,-4.282785557615423e-27,-2.4605423162816643e-27,0.0006292188429896415
1656060246678988379,1167,1656060246635939837,odom,base_link_10,-0.8222845141717023,-0.26212426490366747,1.6608289748396539e-18,3.3502552158306506e-18,-6.4073531365424466e-18,-0.25011277092026685,0.9682167122202477,0.001933136259991294,2.43000592113256e-10,-2.1281870636813154e-24,-1.1917522642514949e-23,1.3455232244301343e-23,2.0741459468543205e-07,2.4300059211324e-10,0.001933136350692223,2.5998829954107106e-24,8.960715339421863e-24,-1.0602874546697789e-23,2.4970466932293503e-07,-5.506765824382889e-23,2.5868899201882756e-24,0.0021082567988661934,-3.932346344700795e-12,-2.0584554118336795e-11,-5.241736915957412e-26,-1.2744742288091122e-23,8.960747305982912e-24,-3.932346344700795e-12,0.001055108093644377,-5.787485819358012e-15,2.0840207048847307e-26,6.556757074157355e-23,-3.7072607086005586e-23,-2.0584554118336795e-11,-5.787485850144648e-15,0.001055108093615197,6.1564288180394805e-27,2.0741459468543205e-07,2.4970466932293503e-07,-1.4189480857534684e-27,-5.234219629996323e-27,6.521241909816119e-27,0.00231935664257834,0.04343138781710602,0.012404960815539942,-4.279881951736974e-18,3.2090027951032473e-18,-1.1780518816817811e-17,-2.7849972268420435,0.0008778789722269973,1.4052781354375363e-23,2.702254551749465e-29,4.3893931015773263e-29,-4.337610439429835e-29,-7.820565507731481e-22,1.4052779480830714e-23,0.0008778789722269975,-5.30880166710665e-31,-5.870782922406844e-31,1.1653988935788751e-29,8.368156945210408e-20,4.503848989651604e-30,5.094747755048746e-30,0.0014061596847517763,-4.634099376030687e-15,-2.4257998629992447e-14,3.0246758350297814e-30,8.518927625792411e-31,-4.607721508185766e-31,-4.634099376030669e-15,0.0003529671918182989,-6.6442457577491964e-18,-1.466506606168894e-29,-1.277983992995079e-30,1.2515385756310503e-30,-2.425799862999286e-14,-6.644245757584113e-18,0.00035296719181826546,-4.843187580802298e-31,-7.820565586617572e-22,8.368156955307827e-20,3.5794002116791814e-30,6.661283387594424e-28,3.177503993372784e-29,0.000702356387568933
1656060246722245106,1168,1656060246667389393,odom,base_link_10,-0.8213639092379854,-0.2624600250402374,1.7084725182702384e-18,-8.287091762070709e-19,5.847681637973444e-19,-0.2752210432961295,0.9613809740820701,0.00017267104064835328,1.924071169016376e-16,-7.172646519433317e-28,2.462936969950969e-27,2.479135350161721e-25,2.8538639639442856e-13,1.924071169016376e-16,0.00017267104064881385,1.287528884756447e-27,1.2671098912016786e-25,-1.248624673989758e-25,8.237852305854985e-13,-7.378122679931064e-28,1.2976392687858356e-27,0.0002068045479315429,-8.673008775958085e-15,-2.960082339428179e-13,1.1728582865755074e-29,-1.0323739319752089e-27,-3.255904099615649e-26,-8.673008777612447e-15,0.00010439961161773836,-1.6963718142876579e-18,8.188215067288692e-29,-6.633015602935477e-26,3.213973935780521e-26,-2.960082339428179e-13,-1.6963718142876579e-18,0.00010439961161768936,-9.801443098908552e-30,2.853863959709121e-13,8.237852310090149e-13,-3.1859115630395214e-29,-2.4417882346846807e-28,3.9496059558524286e-30,0.00020680557835556744,0.04882190397683815,-0.0019864348469369572,1.9975368562986626e-19,-4.444443600911119e-18,6.249198004908338e-18,-3.3606194948318002,0.0007866857165069118,-2.5782041921824914e-16,2.6459248284729465e-27,-1.0955696759294355e-26,1.0705382483865739e-26,-3.493186410499558e-13,-2.5782041927469115e-16,0.0007866857165078829,1.2026155495637313e-27,-6.398183357747969e-28,-1.6159901825861562e-27,1.2640467706751233e-12,9.108087342696249e-27,1.2022903270889539e-27,0.00013853488466149884,-9.524621796998874e-20,-3.4426728775679835e-18,8.251440060406895e-25,-7.540311431493243e-26,-4.278062348222178e-26,-9.524621796979153e-20,3.612381287262272e-05,4.064459000415306e-24,-2.66698310896765e-26,5.284709991397759e-26,-6.283192327134295e-26,-3.4426728775679835e-18,4.06445899839308e-24,3.612381287262272e-05,-3.5454943716523438e-25,-3.493186410507831e-13,1.2640467706751235e-12,-4.209709328887885e-28,-2.668910465352979e-26,5.898598579169847e-26,0.0006292567629843497
