%time,field.header.seq,field.header.stamp,field.header.frame_id,field.child_frame_id,field.pose.pose.position.x,field.pose.pose.position.y,field.pose.pose.position.z,field.pose.pose.orientation.x,field.pose.pose.orientation.y,field.pose.pose.orientation.z,field.pose.pose.orientation.w,field.pose.covariance0,field.pose.covariance1,field.pose.covariance2,field.pose.covariance3,field.pose.covariance4,field.pose.covariance5,field.pose.covariance6,field.pose.covariance7,field.pose.covariance8,field.pose.covariance9,field.pose.covariance10,field.pose.covariance11,field.pose.covariance12,field.pose.covariance13,field.pose.covariance14,field.pose.covariance15,field.pose.covariance16,field.pose.covariance17,field.pose.covariance18,field.pose.covariance19,field.pose.covariance20,field.pose.covariance21,field.pose.covariance22,field.pose.covariance23,field.pose.covariance24,field.pose.covariance25,field.pose.covariance26,field.pose.covariance27,field.pose.covariance28,field.pose.covariance29,field.pose.covariance30,field.pose.covariance31,field.pose.covariance32,field.pose.covariance33,field.pose.covariance34,field.pose.covariance35,field.twist.twist.linear.x,field.twist.twist.linear.y,field.twist.twist.linear.z,field.twist.twist.angular.x,field.twist.twist.angular.y,field.twist.twist.angular.z,field.twist.covariance0,field.twist.covariance1,field.twist.covariance2,field.twist.covariance3,field.twist.covariance4,field.twist.covariance5,field.twist.covariance6,field.twist.covariance7,field.twist.covariance8,field.twist.covariance9,field.twist.covariance10,field.twist.covariance11,field.twist.covariance12,field.twist.covariance13,field.twist.covariance14,field.twist.covariance15,field.twist.covariance16,field.twist.covariance17,field.twist.covariance18,field.twist.covariance19,field.twist.covariance20,field.twist.covariance21,field.twist.covariance22,field.twist.covariance23,field.twist.covariance24,field.twist.covariance25,field.twist.covariance26,field.twist.covariance27,field.twist.covariance28,field.twist.covariance29,field.twist.covariance30,field.twist.covariance31,field.twist.covariance32,field.twist.covariance33,field.twist.covariance34,field.twist.covariance35
1656060245806105769,1140,1656060245769439220,odom,base_link_38,-0.9666872996316008,-0.21529080694282618,8.339203040725155e-20,-7.125261079939281e-19,-1.5696535356766421e-18,0.2736233099632028,0.961836932252438,0.0052718440179685445,-1.1558514645267358e-07,-3.690738433960143e-23,1.280748931123979e-22,1.655094523612234e-22,-1.5876660080191496e-05,-1.1558514645266686e-07,0.005271973065973997,-1.6360881025345907e-23,7.532067889252032e-23,1.2047806320936451e-22,2.7048074774974037e-05,-3.690738433080234e-23,6.7599026970161196e-21,0.002333689003459862,-2.4779484132739667e-13,-9.762881412792002e-12,2.321647377301666e-27,-8.368313208033192e-23,3.463452598838207e-21,-2.4779484134063156e-13,0.001167841831576877,-1.3554345697334604e-15,9.829332925200389e-26,1.6550945256409605e-22,3.614488970645535e-21,-9.762881413639035e-12,-1.3554345697339278e-15,0.001167841831523509,4.8700577855215e-27,-1.5876660080191496e-05,2.7048074774974037e-05,8.783517371446515e-27,-5.104247316799109e-27,4.870119021888046e-27,0.006325676316058322,0.13372698030517727,0.001654069236371336,2.084868115955327e-18,-7.081579139984205e-18,-7.508994367712035e-18,-2.0228645090019986e-08,0.0009718050348331772,-5.399466810900167e-24,1.0382917480968502e-29,2.2411768059655483e-29,2.2604824278110985e-29,9.17348709015084e-25,-5.399466219254488e-24,0.0009718050348331773,2.370681301854766e-30,2.389774053077629e-30,3.4744022414598597e-31,4.015595605965322e-26,-3.544500060483728e-30,6.576931295705042e-31,0.0015564578482607718,-3.7201699922670044e-16,-1.4657193308200573e-14,-8.221064257510993e-33,-1.3549180290534365e-30,-6.2001936436738635e-31,-3.720169992267367e-16,0.0003906045220360252,-2.027748943411878e-18,2.200562127350814e-30,-1.4677077289437223e-30,3.4744146319050013e-31,-1.465719330820263e-14,-2.027748943411908e-18,0.00039060452203594547,-1.940038169843497e-30,9.17348709015084e-25,4.015561295523363e-26,5.327342727557278e-33,2.2005620894803307e-30,-1.9161207352425606e-30,0.0007774974475923507
1656060245840744010,1141,1656060245800155163,odom,base_link_38,-0.9632487927369111,-0.21076901894678435,1.9539828340046924e-18,-1.0632387614907725e-18,1.085831772832424e-19,0.29697087336414313,0.9548865379579597,0.00014742296211359574,-6.221812857299801e-15,-2.3282856107559574e-27,1.0213862373116041e-24,-2.7079258847346997e-27,-1.7070089712947246e-12,-6.2218129102393604e-15,0.0001474229621202987,-5.088807188063109e-25,1.3872418447755698e-27,1.0100114778234309e-24,2.7918272958748526e-12,-3.7896778550961994e-27,1.2721509728483175e-25,0.00017650630029372402,1.90137310222453e-14,-6.679753966454437e-13,-7.923224414406469e-28,-1.1876691562667393e-25,2.4920948193269998e-27,1.9013731018936577e-14,8.925046554084874e-05,7.089177357812982e-18,-4.789562109454441e-28,-4.862271202152589e-28,-1.2848449957048225e-25,-6.679753966454437e-13,7.089177294618913e-18,8.925046554060089e-05,7.953119404800362e-28,-1.7070089679065929e-12,2.791827302651116e-12,-1.5696270977335042e-30,3.2446582230825016e-30,6.805172287550613e-30,0.00017650771955102056,0.12833235203240517,0.003726008922464581,2.6629713953030983e-18,3.970636578350147e-18,-2.9235046545242547e-18,0.16230673199926468,0.000768292889528928,3.5590591014499184e-16,6.251442595497642e-27,-4.533954174171206e-28,-1.1951572015050189e-26,3.449387034385356e-14,3.5590591017447443e-16,0.0007682928895466324,-7.146390938242962e-28,-2.2625899003904837e-27,-1.7285108080071097e-28,3.437917029650697e-12,-1.7672544058705006e-25,1.2988784698190708e-25,0.00011833604078083934,1.604098725094397e-19,-5.656301573874588e-18,4.9995734246162437e-26,-1.1753731461672675e-25,6.306642148707547e-26,1.6040987250943354e-19,3.107402148461917e-05,6.693500650790435e-23,-1.8578922843325006e-27,-1.1951122052852908e-26,-3.741839863147286e-28,-5.656301573875377e-18,6.693500650537657e-23,3.1074021484619227e-05,1.092816486882637e-27,3.44938703438533e-14,3.4379170296507227e-12,-9.413425417305314e-28,-1.4675773758723668e-27,1.0819507638578794e-27,0.00061458512446224
1656060245873227091,1142,1656060245835951090,odom,base_link_38,-0.9593738602163043,-0.20757943407554524,1.8561010487093525e-18,-3.8940601634666834e-19,1.1070910964534524e-18,0.3075409136919719,0.9515348582188186,0.0019372270281614679,-1.8288790537865079e-09,-9.34536872897425e-25,-5.813694348606784e-25,-2.422816359940824e-24,-4.868202772707024e-07,-1.8288790537864882e-09,0.001937228177363884,-1.7821973515726228e-24,7.7365011286188675e-25,-1.6276934091863988e-25,6.632319162393716e-07,-2.1269277364885318e-22,-1.7821973256394307e-24,0.0021497387539559623,1.885560377724946e-12,-7.744303794207347e-11,6.902406709688442e-28,1.0529793370222249e-22,5.536770644483279e-23,1.885560377724946e-12,0.0010758446950812656,8.656380233144484e-15,-1.3522401063907304e-26,-7.68452229377842e-25,-5.1447965320157824e-23,-7.74430379419676e-11,8.65638023197785e-15,0.0010758446947259498,1.4944271059159134e-28,-4.868202772707026e-07,6.632319162393715e-07,6.8664706834779455e-28,-5.977262130172165e-28,1.494205862046649e-28,0.0023242636832157353,0.14165922259441496,0.012302501288927297,-2.7009464668795124e-18,-7.892980395960285e-18,-7.045304102541108e-18,0.6195462633030979,0.000895164156557473,1.087964215049533e-24,5.569649218408429e-29,-4.707267250077937e-30,-5.793622010049826e-31,1.5602403088389713e-21,1.0879598686108345e-24,0.0008951641565574731,6.087315116301699e-30,8.951528377304323e-31,-3.1407104726071166e-30,1.6037388803144807e-19,4.208608792417575e-31,6.060323713873781e-30,0.001433811992247878,2.290328053334003e-15,-9.406750379721553e-14,5.633107759729803e-32,-2.186514678689608e-30,9.739503559860906e-31,2.290328053333986e-15,0.00035986666989819776,1.0192566583603195e-17,-4.5835882862554305e-30,-5.40776158484722e-31,2.524888401814932e-32,-9.406750379721505e-14,1.0192566583610985e-17,0.0003598666698977794,-1.07228038640106e-29,1.560240311994415e-21,1.6037388823339646e-19,-3.860412172669118e-33,4.6150326384300567e-29,4.0007922313419496e-29,0.0007161845020803534
1656060245906623459,1143,1656060245866539478,odom,base_link_38,-0.9552146522311492,-0.20642928286982573,1.544769445263184e-18,1.5049640678080965e-20,1.0379071120941561e-18,0.2815454234898582,0.9595479011033875,0.00012732382862049984,-2.9373494737104455e-15,-2.595300438253941e-27,6.668832039854854e-28,-1.0006430073136772e-24,-1.6817317226032035e-12,-2.9373494737104455e-15,0.00012732382862157667,-1.290360834588934e-27,2.555794215343709e-27,-5.01451121130392e-25,2.01136247312769e-12,-4.508459771388759e-27,-1.8225713765300548e-27,0.00015238789433309773,6.749403278607304e-15,-6.715778901329169e-13,-4.22030437410393e-30,4.14289271570614e-29,1.93032857616338e-27,6.749403277780123e-15,7.71912886732215e-05,2.5483654905961572e-18,4.288115143030685e-30,2.5249828819136815e-25,1.266710445373116e-25,-6.715778901858565e-13,2.5483654280168077e-18,7.719128867296791e-05,1.9056923819572819e-28,-1.6817317226032035e-12,2.0113624748217557e-12,-3.288730849152807e-30,-4.9740886217981994e-30,-1.973975068530558e-30,0.00015238892328431602,0.15115600514655053,0.0014704907619320507,-2.634249243458988e-18,-3.712679428780983e-18,3.464144141323543e-18,-0.16191228629759796,0.0007650715441394195,-4.156339309583631e-16,-8.955488417868684e-27,-1.7200027414005088e-26,9.464602850751628e-27,-1.6140584202301585e-13,-4.1563393103676236e-16,0.000765071544145218,-6.020977285853183e-28,2.3980416434850794e-27,8.550296768883354e-27,2.1321420408023467e-12,-3.140218002468961e-25,-5.120109727274782e-26,0.00010225711800998668,4.530613779610076e-20,-4.239430942654417e-18,2.6554174650986134e-26,-1.760288303780842e-25,-2.279687276786542e-26,4.530613779605146e-20,2.7054387185204514e-05,6.470118488367755e-23,9.823654317079266e-28,-1.583273274212008e-26,1.6101692628623213e-25,-4.239430942654417e-18,6.470118488656644e-23,2.705438718520446e-05,-1.4249478222701455e-27,-1.6140584202301578e-13,2.1321420408023597e-12,6.146480387053949e-28,9.499646241185698e-28,-1.056761474954166e-27,0.0006120343394871781
1656060245939691058,1144,1656060245902642727,odom,base_link_38,-0.9513327999932545,-0.20372682081662918,-6.173314589904652e-19,-3.5899357192961395e-18,-3.4634075616538884e-18,0.27404784308963626,0.9617160598107521,0.001932494267357878,-2.1395696102558226e-09,3.092451435642911e-24,2.551899471809837e-23,1.6457258080487586e-23,-4.631401341454602e-07,-2.1395696102555355e-09,0.0019324961128140787,1.0458336589959632e-24,2.13817084204852e-23,9.525187491224157e-24,7.041123300345071e-07,-2.1626505382467334e-25,1.0716868146851147e-24,0.0021681754002397654,1.7876096280827988e-12,-1.0607460632197769e-10,1.7767807736893976e-28,2.551918593432392e-23,2.1381831137252482e-23,1.7876096280844532e-12,0.0010850592560954127,9.716058447628872e-15,-9.558341302434456e-27,1.4802704753319236e-23,9.525066248686751e-24,-1.0607460632197769e-10,9.71605844897427e-15,0.0010850592555190295,-5.129304479986009e-27,-4.631401341454602e-07,7.04112330034507e-07,1.7767703964720473e-28,-9.154444520814722e-27,-5.100518829536607e-27,0.0023185841866788155,0.1326534100592734,0.005150890108606216,-2.2125538676455947e-18,-1.3441085032276943e-17,-2.6138551781457542e-18,-0.43235145336850983,0.0009028479136981859,-2.7360748468470313e-24,-1.1844270181483357e-28,-7.153379943170644e-30,1.1778378316293165e-28,-1.1541729973042917e-20,-2.7360759438567276e-24,0.0009028479136981859,-1.7879794840650982e-30,4.992742358158337e-31,2.853302465380241e-30,1.6159777727641878e-19,7.048123465580529e-30,-2.2861093051444378e-30,0.001446100959637647,2.191378566798065e-15,-1.3003378189734298e-13,-1.9338337321410018e-32,-4.276498390500591e-30,-4.057490640951406e-31,2.191378566798071e-15,0.0003629267761819936,1.1494690299022085e-17,-1.275487730150532e-29,-8.454200622078871e-31,2.8755645490491182e-30,-1.3003378189734367e-13,1.14946902990116e-17,0.0003629267761813117,3.8720923600698134e-30,-1.1541729960421143e-20,1.6159777727641878e-19,-1.8310744222256097e-32,-1.2754877372844282e-29,4.2316921910580796e-30,0.0007223316512909479
1656060245972832406,1145,1656060245933309078,odom,base_link_38,-0.947652162899817,-0.20059057244472217,-9.846531858924681e-19,-2.2156556471317515e-18,-2.231552163404522e-18,0.28153354086869764,0.9595513875587557,0.001535316015267209,-1.5806359538330739e-15,-2.5991739281415504e-26,3.2053881538509426e-24,3.946073208684312e-26,-3.8849794497210406e-12,-1.5806359505243514e-15,0.0015353160152685732,-1.5921108348175641e-24,1.5051815449753292e-25,6.078680412406411e-26,5.7507231585079066e-12,7.708101415626436e-26,1.8241229589151235e-24,0.0018419796963008773,3.0273123683028276e-13,-5.67616848739605e-12,-6.571871794140437e-27,-1.5876085869661967e-24,1.0248848752508794e-25,3.0273123685675254e-13,0.0009219877786062266,1.2424082407152617e-15,-4.3582643826796014e-27,8.733813230547173e-26,6.739714634666486e-26,-5.676168485701984e-12,1.2424082422740004e-15,0.0009219877785829919,1.5120765120913453e-30,-3.8849794522621394e-12,5.750723156813841e-12,-1.0171608891334893e-29,-3.7367351005964174e-29,-6.829417939513581e-29,0.0018419797862999744,0.13557809977798205,0.005596841279684271,1.5643734505687708e-18,-2.807482233881148e-18,1.5768919422243769e-18,-0.43207587034617456,0.001683302432554079,-2.3252396456543003e-14,1.1487708350041611e-24,-1.687750316328377e-24,1.0224352981865842e-24,-5.529033825243834e-11,-2.325239647310409e-14,0.0016833024334347874,1.2729256195447367e-25,-1.9709656102693146e-25,1.2508723312484878e-26,1.413413403073704e-09,1.1410489833154206e-24,1.2562859659869957e-25,0.0012286519788052676,2.834227472437812e-16,-5.315029116325532e-15,1.0215165249610081e-25,-1.4398738389385123e-23,-2.069967115336045e-23,2.834227472437662e-16,0.00030865527473941673,1.16044667101847e-18,7.418604922438387e-26,2.1520710616102022e-23,-1.269999479909703e-23,-5.315029116325481e-15,1.1604466710181618e-18,0.000308655274739395,9.136226828790105e-26,-5.52903382524385e-11,1.4134134030737041e-09,1.9852743125831255e-27,2.4225223760299475e-27,-8.815473990605203e-27,0.001335447104410514
1656060246006412469,1146,1656060245969547749,odom,base_link_38,-0.9429114886727098,-0.1973583326884858,1.4473853409082036e-18,-5.898655137806977e-19,-3.855690841972167e-19,0.28902338282510176,0.9573220378641321,0.003347271478230079,-2.145936493603585e-08,-4.2465718021531727e-23,3.0409826104866867e-23,1.4341666605176336e-23,-5.280704073553396e-06,-2.1459364936035937e-08,0.003347286852080735,-2.54717991259722e-23,1.9362417931932084e-23,-5.8332155466359e-24,7.500865371757616e-06,-4.246488358672632e-23,-3.413603119056343e-21,0.0021763185934445288,4.714146343947468e-13,-8.078697783069349e-12,3.9702554633152694e-27,-3.304782404145883e-21,3.4074942078366486e-21,4.714146342888677e-13,0.0010891568621348177,2.339691069680669e-15,-1.5845494312272928e-27,-3.320849802973643e-21,-5.877221784989546e-23,-8.078697783069349e-12,2.3396910696806436e-15,0.001089156862094852,3.9769563289314497e-29,-5.280704073553396e-06,7.50086537175762e-06,1.0713202730894541e-28,3.2082192647265403e-28,1.44631509899644e-29,0.0040163003586482105,0.16040071496596167,0.004627106011178503,3.4497772249932224e-18,-3.748750634666588e-18,-6.516727533711458e-18,0.43094480262755974,0.0009062343478941502,-4.1113074841456145e-22,1.974803799688601e-29,-1.0670285016101375e-29,1.5396743352902827e-29,-1.2822568053589461e-18,-4.111307421036742e-22,0.0009062343478941505,1.6391012509974984e-30,-1.2983961278917905e-29,-1.2239769917221996e-29,3.261373825448478e-17,-2.7552928448694425e-30,1.5860244739786753e-30,0.0014515443727822976,6.157539946850608e-16,-1.0552264737203484e-14,-3.048822524621279e-31,-1.0670753829697106e-29,-1.5654818926417348e-29,6.157539946851497e-16,0.00036437702149815,3.0462746165983987e-18,7.431579607165046e-30,1.6425721413588976e-29,-9.50551085049764e-30,-1.0552264737204338e-14,3.046274616598221e-18,0.0003643770214980978,-7.470433526836623e-30,-1.2822568053589461e-18,3.261373866807509e-17,-3.8764645588629024e-30,-1.6267131284655588e-28,1.6471634474512818e-28,0.0007250409868516938
1656060246039802163,1147,1656060245997353554,odom,base_link_38,-0.939775034413018,-0.19559679140614494,8.78944414494393e-20,-1.068036439819945e-18,-9.808253070592305e-19,0.2964284416363102,0.9550550659459739,0.004737626588455991,-9.868552667151593e-08,-1.7927929201211327e-23,1.3535722754143465e-22,3.8938777832126787e-23,-1.5733612074612074e-05,-9.868552667148036e-08,0.0047376965785856364,-1.7165488948672447e-23,9.86736114030261e-23,4.1211673915297205e-23,2.2262785186389206e-05,-6.794191511639737e-21,6.864977204149483e-21,0.0016703469347480004,1.0995474197281463e-13,-6.195374587323742e-12,-4.71083217623482e-27,2.947810913965453e-23,3.433865841361754e-21,1.0995474194634485e-13,0.0008361714055299086,4.947537884459161e-16,2.814633782565728e-26,-6.737324653063563e-21,9.415133067010007e-23,-6.195374586476709e-12,4.947537853398363e-16,0.0008361714055020557,-1.9460521029132708e-25,-1.573361207461206e-05,2.226278518638921e-05,-7.201046003182486e-27,2.653075071953864e-26,9.86737761534564e-27,0.005684649083380751,0.13036971114341755,-0.009691939125016398,-1.5278956570380586e-18,2.617804381506889e-18,-6.731225579780004e-19,0.556967746193032,0.0006956781801708605,-9.395047634808262e-25,2.5944262063911743e-31,8.715233149486232e-30,8.926682297915527e-30,3.8179007777290073e-23,-9.395047634808262e-25,0.0006956781801708605,5.769796458259969e-31,5.548509650907668e-31,-7.266338747393831e-31,-1.7244853089695392e-21,2.5723196860605226e-31,5.691012078231459e-31,0.0011142301423228138,8.463115924938075e-17,-4.768292372097865e-15,-9.260640264542522e-30,-1.0661722783713348e-30,-5.632641214172362e-32,8.463115924937404e-17,0.000280049846745373,3.798498659883968e-19,-2.202065990442134e-31,-6.904982491117204e-31,-1.1545721644681408e-31,-4.768292372096727e-15,3.7984986598949035e-19,0.00028004984674535167,4.252986589965309e-30,3.8179007801941977e-23,-1.7244853081806783e-21,1.837938302308132e-29,-2.2023421957987337e-31,-3.651352971687225e-29,0.0005566490923702186
1656060246072919877,1148,1656060246072095156,odom,base_link_38,-0.9311592148442287,-0.1905315775438794,2.413867716821727e-15,4.145053973280196e-16,-8.948017351430447e-16,0.3162416289731263,0.9486786769525409,0.008478936507256358,-5.965968717783061e-07,-2.005350502624556e-19,2.968635423917261e-20,1.4991674833056095e-19,-4.4621768201317945e-05,-5.96596871778323e-07,0.008479508374159568,-1.0648792333762657e-19,-6.33178890497204e-21,9.577173493914023e-20,7.140091466391256e-05,-2.005350502624556e-19,-9.290892640195607e-20,0.006161154829940472,-9.381829198435236e-07,-8.339056412720763e-06,5.621455627218587e-23,1.61338270830545e-20,7.220738251146069e-21,-9.381829198435236e-07,0.0030814329591342476,2.1763004663670848e-13,1.32204188888736e-23,1.4906971538330665e-19,9.57717349387458e-20,-8.339056412720763e-06,2.1763005002484026e-13,0.0030814329590883012,2.8990946090391774e-23,-4.4621768201317945e-05,7.140091466391256e-05,5.600150071890378e-23,1.3220418895036576e-23,2.8990946090388765e-23,0.01017225702921193,0.1372796117921098,-0.009189568216925181,2.6367796834847468e-15,-1.5712306444961592e-15,-2.2641000600020935e-15,0.5569677463136031,0.0026493392936081783,1.0512719995396905e-16,1.6349741794993438e-24,1.2664924627756655e-24,-6.596866992905919e-25,1.7104742398191442e-17,1.0512719995396905e-16,0.0026493392936346987,1.3609806990107402e-24,9.367298851713915e-25,2.666512844748193e-27,-2.3243779010871853e-16,1.5865065654825648e-24,1.3609806990107402e-24,0.004106235347097178,8.45434921326405e-17,-4.763353771787398e-15,1.0469004627624257e-24,1.240643463063836e-24,9.367298851713798e-25,8.45434921326397e-17,0.0010274658661850703,3.79849865996208e-19,-6.853898178393592e-25,-6.855356990009168e-25,2.6669072751890485e-27,-4.7633537717874e-15,3.7984986599818014e-19,0.001027465866185049,-1.1352489868473806e-24,1.7104742424040836e-17,-2.3243779010871853e-16,1.0469004627624257e-24,-6.853906067032737e-25,-1.0835509874267308e-24,0.002051481131249937
1656060246139441833,1149,1656060246102529287,odom,base_link_38,-0.9413292248990985,-0.1973001538352206,-2.4676678244425543e-15,-4.149830507375844e-17,5.509934863513858e-16,0.49686971511283495,0.8678251472524233,0.0015237097759917375,-1.9608588520741826e-14,-1.195036392164609e-23,1.8768036718640948e-24,2.6855017630248768e-24,1.1916659432877069e-11,-1.9608588520750427e-14,0.001523709776884896,-4.059310635148248e-24,2.083224811833593e-25,2.7000946650100946e-25,-1.3290074474719472e-09,-1.1951980335774301e-23,-4.05971393407868e-24,0.0018271590410293757,3.053882937122908e-10,1.5967916952054604e-10,3.371963607657476e-27,1.8784190669135133e-24,2.083201175786798e-25,3.053882937122907e-10,0.000914144175304551,-5.3769426537246636e-14,6.440520462138426e-25,2.685503727029317e-24,2.704143983080244e-25,1.5967916952054594e-10,-5.376942655181466e-14,0.0009141441753792723,-3.239250947360961e-25,1.1916659432877017e-11,-1.3290074474719472e-09,-4.139104110431229e-27,6.440889675352078e-25,-3.303980622388752e-25,0.0018280480948990375,0.0012895185635751433,-0.009038355995251105,3.3428418129694015e-16,3.432718632862991e-16,2.957525296787565e-16,2.4443577465475705,0.000761385103982483,3.86805663296905e-23,3.834076166703873e-25,-1.2830468534473547e-28,-1.0188977531200619e-28,-8.42293491446116e-23,3.868056642829811e-23,0.0007613851039824826,-1.5914769965086447e-25,5.393085909045131e-29,2.831860672859787e-29,-2.297989290957249e-21,3.8337287837478023e-25,-1.5914735809192173e-25,0.0012184760475723337,8.974516703996599e-14,4.69252487202645e-14,1.3276370285555085e-28,-1.289790651795353e-28,5.354083430339918e-29,8.974516703996604e-14,0.0003054511188633713,-1.475417794943171e-17,-3.806319980306216e-25,-6.751026302903995e-29,2.798137492809582e-29,4.6925248720264513e-14,-1.4754177948250582e-17,0.00030545111886339177,1.5805277252811313e-25,-8.422931620966881e-23,-2.2979892530919256e-21,-5.662390163838659e-28,-3.8068581156948316e-25,1.753218774589838e-25,0.0006092144166984928
1656060246182218607,1150,1656060246133532286,odom,base_link_38,-0.9421127448389106,-0.19670608106013912,8.97468644639502e-19,2.3534553035786874e-19,-7.611251278955902e-19,0.3187608975754402,0.9478351598125593,0.0001468382630416985,7.938652393595022e-18,3.28730688610703e-28,3.004561365818715e-28,-2.6245600365401883e-28,1.0689956366817939e-13,7.938652335433885e-18,0.00014683826304170674,3.489708139111133e-28,-1.5915281861367464e-28,6.190254422946961e-26,8.529610852125785e-14,2.3225699662058186e-28,1.573255118107204e-28,0.00017580536870669562,-9.543982629701773e-15,7.37546405323884e-14,2.1378539783227205e-31,3.0045572577010578e-28,-6.888684955411251e-29,-9.543982629701773e-15,8.890002849879094e-05,1.7298794323965852e-19,2.220829059035356e-31,-2.1731626520977315e-28,-1.861029192147167e-26,7.375464052577096e-14,1.7298794322703674e-19,8.890002849878823e-05,-2.810023662138258e-29,1.0689956361523983e-13,8.529610852125785e-14,1.129848662645595e-31,-1.10997763410054e-30,1.2186645233766609e-28,0.00017580629086425773,-0.014563987726080932,-0.0016536332916784896,-3.3834760847117936e-18,-6.020408153625674e-18,-4.1370474221524383e-19,-3.441144339433261,0.0007754635813040392,3.3688201842761267e-18,1.2655047908554912e-27,2.7611278432770342e-27,-1.6820179300319954e-28,1.4437763627503143e-13,3.368820285751047e-18,0.0007754635813042411,-1.6688978109245282e-28,3.854145539455483e-28,7.839905729907406e-29,-3.973059362415965e-14,1.2718113835377491e-27,-1.6609961570369545e-28,0.00011786876886218131,-8.27432421587546e-20,6.156528094524252e-19,3.8068402699572577e-26,1.7389701667707236e-26,1.1215787443495151e-26,-8.274324215870529e-20,3.095730829146345e-05,1.783096849924846e-24,6.883700362763246e-26,1.9774681309045987e-26,3.594558294300468e-27,6.156528094523882e-19,1.7830968560968496e-24,3.095730829146356e-05,9.4422470147495e-27,1.4437763627421073e-13,-3.973059362415322e-14,3.804435535116589e-26,6.883823264432904e-26,9.432301219812897e-27,0.0006203259652875868
1656060246226244259,1151,1656060246169312954,odom,base_link_38,-0.9418248872467962,-0.1960371211143577,-8.014955081474783e-19,-2.186971163441678e-18,2.752485677605685e-19,0.2170859228698012,0.9761524994035341,0.0019358778715450956,-3.14879332960284e-11,-1.0520746696359266e-25,-8.73188316722399e-25,8.449788258320459e-25,6.84562016650293e-08,-3.148793329600577e-11,0.001935877882098112,-2.136602044446144e-25,-8.51931888234823e-25,5.930100319932425e-25,-8.088211961639702e-08,-1.0525241076539728e-25,-1.344535347269473e-23,0.0021488231598608266,-1.7484543983284295e-12,9.828888717916346e-12,2.4792646711126845e-26,-6.663952727828187e-25,-6.451383324000025e-25,-1.7484543983251208e-12,0.0010753872909331093,1.0121204621035578e-15,2.8946572704104987e-27,-1.2183137338104632e-23,-2.587678644088913e-23,9.828888717916346e-12,1.012120425176381e-15,0.0010753872909275849,3.0099381135289135e-27,6.84562016650293e-08,-8.088211961639705e-08,-9.4452559749113e-28,3.298532029757766e-27,-9.147025870435007e-28,0.002322646728302879,0.015890965791502447,0.010927211117170226,4.5594309932798704e-18,-2.013080271794589e-17,1.0916814326612412e-17,-5.902173114692491,0.0008947837740131134,8.4635522383442e-23,-4.2171475823746275e-30,5.272979000055478e-31,4.996650815603326e-31,1.2233909991607989e-20,8.463552297508768e-23,0.0008947837740131136,1.1016463905842363e-31,1.7776915853185076e-31,-1.379542637466082e-31,-3.2082909717139515e-21,-4.5412007772648214e-30,1.0949291729134174e-31,0.001433201542355741,-2.1215548099487547e-15,1.1926261647415727e-14,-1.5512995316855799e-31,4.985029487748458e-31,1.762361701126901e-31,-2.1215548099487582e-15,0.00035971374798928087,1.1903469413476914e-18,9.044191269996902e-30,2.0264413815955175e-31,5.661511954798663e-32,1.1926261647415779e-14,1.1903469415922743e-18,0.0003597137479892743,-5.8977332697934234e-31,1.2233910029473312e-20,-3.208290984335726e-21,-3.5871646594119598e-31,5.995697757144669e-29,6.369588650040238e-31,0.0007158804135862011
1656060246270252177,1152,1656060246200896740,odom,base_link_38,-0.9411096604362886,-0.19622531860336276,1.945557522835045e-18,-1.734306250472864e-18,9.326572305715047e-19,0.22135248479430886,0.9751938666108321,0.00018294688118597946,-2.9936207861402564e-17,-1.5205248425470575e-27,2.5799864271440715e-25,2.485998583714527e-25,-2.672349783901419e-13,-2.9936207551209834e-17,0.00018294688118594173,-6.396935832914762e-26,1.0687779874897227e-27,-6.305114430224038e-26,2.118716457372456e-13,-1.820061398173761e-27,3.056737604296935e-26,0.00021913555231445813,1.1989593011273793e-14,-2.3227303416971543e-13,-7.927899265242539e-30,-6.177878680437275e-26,1.0683533831315616e-27,1.1989593009619432e-14,0.0001105651075989435,1.1830809769584664e-18,-1.8598516232637474e-29,-6.580466117165165e-26,1.5517743777992636e-26,-2.322730341829503e-13,1.1830809769584664e-18,0.00011056510759891304,-2.333505133673542e-29,-2.672349783901419e-13,2.1187164584312473e-13,-3.7933669735042704e-31,5.400478595964378e-31,-7.90801391642553e-31,0.00021913658708269668,0.0358915903419016,0.0013321519426555237,7.52259896457945e-19,-7.54621921088572e-18,-2.5302735745616446e-18,-4.663512756348957,0.0007900522916517055,-7.385089443783878e-17,1.4698601509150029e-27,-1.0198018947862054e-26,-1.267710270555117e-27,-3.235920827526759e-13,-7.385089459278138e-17,0.000790052291651966,-9.731611330909435e-29,-7.279188229293964e-30,1.4731689105157164e-27,4.740836821793835e-13,1.3948496678223462e-25,-4.7151798858105447e-26,0.00014675555048743942,1.6052167313590924e-19,-3.028085328504727e-18,-1.6616742142123306e-24,-1.0197363071964677e-26,-7.483644664377417e-30,1.6052167313590924e-19,3.8178954384399675e-05,2.1020415995734984e-23,1.0845838521944302e-25,6.740650803028291e-26,-2.19494720738994e-26,-3.0280853285048257e-18,2.102041599792573e-23,3.817895438439962e-05,-7.843187244911259e-25,-3.2359208275349e-13,4.740836821802234e-13,-4.126739766270394e-27,1.0845838500617015e-25,4.2839916589432004e-26,0.0006319411828261695
1656060246314390901,1153,1656060246235903025,odom,base_link_38,-0.9398159812568315,-0.19547653966057663,-3.841570200163606e-18,2.149312030257604e-19,-3.58396901783771e-18,0.1561730419542424,0.9877297104809384,0.0019332668934541252,-1.3476323036262608e-10,3.362001530651857e-24,1.0794976704050455e-24,6.756449348027579e-24,-1.2824969771973995e-07,-1.3476323036261494e-10,0.0019332670604357252,2.1004078338820227e-24,-7.509339424498118e-27,3.1680053717988255e-24,2.3032347398443552e-07,5.0163627971133554e-24,2.0939453888089316e-24,0.002102363475593832,3.538984571546186e-12,-1.5570610626124653e-11,4.5172059009431e-27,2.0931857703141053e-23,2.6462280468507243e-23,3.5389845715395684e-12,0.0010521624198613802,4.046185045334733e-15,1.3166998471984086e-26,-1.9713355230279306e-23,2.963777302277851e-23,-1.5570610626124653e-11,4.046185074792932e-15,0.0010521624198444822,-3.732882417431807e-27,-1.2824969771973995e-07,2.3032347398443552e-07,1.2902808418945801e-27,-1.253740622638177e-27,3.553953437324982e-27,0.002319513996243289,0.04108505366837037,0.004140289817523168,-6.570315511201145e-18,-6.7300522383851725e-18,-1.040282614106309e-17,-3.7928551746576344,0.0008754234125939905,7.046559821682542e-23,3.964719277261895e-31,9.903776787126575e-30,-9.301234404211525e-30,-2.9477923428799916e-20,7.046559831543304e-23,0.0008754234125939904,6.643109709207082e-30,1.8729245523755875e-32,-2.61153022764447e-31,3.801620490009123e-20,6.1744823827645294e-30,6.292435953418721e-30,0.0014022311143924364,4.152120130252246e-15,-1.8268255012530544e-14,-1.7663783837487312e-29,-2.3707345138351476e-31,3.0585230788383755e-33,4.152120130252262e-15,0.00035198689700637043,4.627764843423699e-18,-7.917580830564976e-31,8.358577086593586e-31,-2.6112448239297807e-31,-1.8268255012530386e-14,4.627764843273143e-18,0.0003519868970063511,-3.608532781002273e-29,-2.9477923226851525e-20,3.801620510203962e-20,6.473654714121044e-30,-2.730507204734739e-27,2.646795428876894e-29,0.0007003919703792352
1656060246314427620,1154,1656060246266607761,odom,base_link_38,-0.938597433571139,-0.19477644836997196,2.5266467768662516e-18,3.8079586240403507e-19,8.512036741771489e-19,0.07865649176160218,0.9969017786641555,0.00013404723124065335,-1.8803994303179422e-16,-1.2667268966079261e-25,-1.1306836402527833e-27,-1.3265262350337336e-27,-2.9815452763090134e-13,-1.8803994282499906e-16,0.00013404723124095042,6.262399801912495e-28,2.2951915691284156e-28,3.104280709952359e-26,6.834959869608868e-13,6.264384131036892e-26,5.416008036491053e-28,0.0001604559779047846,6.578184432800881e-15,-2.0074477957742782e-13,2.063055940880514e-29,9.921104169539228e-28,3.119291552614056e-28,6.578184432387291e-15,8.122532910869687e-05,5.186485211127018e-19,1.2918172259278478e-29,-9.82641258792258e-28,-8.280894817634498e-27,-2.0074477956419293e-13,5.186465174628006e-19,8.122532910867443e-05,5.9927177115945686e-30,-2.9815452763090134e-13,6.834959873844033e-13,-4.6809257908743805e-31,-6.132383261762552e-29,-4.364594664325981e-32,0.00016045700691795506,0.04271931003672085,0.0010297593238609958,-3.553795254832962e-18,-4.2460113998931643e-19,-8.045210417763654e-18,-3.8110243628996474,0.0007679876315318759,-1.304484961617915e-16,-5.078385759048612e-27,-1.5709500481264223e-27,-1.0442445208605361e-26,-1.3953617959734592e-13,-1.304484961189879e-16,0.0007679876315325125,3.9560757314870216e-28,1.226618277702899e-28,2.984826273072955e-28,6.604278404433269e-13,-1.737528863216196e-26,-2.801563096183913e-26,0.00010763583943894177,4.848818712491326e-20,-1.4044518509179208e-18,-6.083476103778745e-26,-5.190133292764539e-26,2.587863110971018e-26,4.848818712491326e-20,2.8399061224894427e-05,1.5597508588637022e-23,-3.902180415494042e-27,4.602867202904189e-26,-1.1339671491008328e-26,-1.4044518509179208e-18,1.5597508609388917e-23,2.8399061224894536e-05,-1.1480508430889593e-25,-1.3953617959734592e-13,6.604278404433272e-13,-6.247070298663765e-26,-3.8775533452314555e-27,-1.148207098052098e-25,0.0006143608594132893
1656060246358215063,1155,1656060246302953482,odom,base_link_38,-0.936632241667327,-0.19463938838604525,5.429229574383205e-18,4.4321897716429445e-18,-3.470497584741901e-18,0.018543648295748363,0.999828051770845,0.0019513398792596998,-7.077277339864228e-11,-6.364352053183618e-24,-9.49501687984293e-24,1.0219207597306957e-23,-4.819079007474225e-08,-7.077277339863596e-11,0.0019513402109178025,-1.0767453324771223e-24,-1.863914600521231e-24,1.9625271950122423e-24,2.3568823890775894e-07,4.8216643666548805e-23,-8.69950184762996e-25,0.002182724675113339,4.900842410979891e-12,-2.66520867886757e-11,-2.2617533292973664e-27,-5.359177413097543e-24,4.856917747265862e-24,4.9008424109832e-12,0.001092335945434314,7.04127008250717e-15,-2.367759005706902e-27,1.0219151662279785e-23,1.9625201518120857e-24,-2.665208678870217e-11,7.041270082507376e-15,0.0010923359453973002,-2.2158445403185113e-26,-4.8190790074742303e-08,2.3568823890775894e-07,-1.9224005549385754e-27,-1.912334451949444e-27,3.689374173190427e-27,0.002341200578591541,0.052657901832946816,-0.00404964589977616,1.4618563514066966e-17,2.4575401095326113e-17,1.5449063608680018e-17,-3.3122697652292015,0.000908911140861621,6.667688033262665e-23,-9.660442375582087e-30,-4.189669465405856e-31,1.2011849267331656e-30,-1.5162955619268723e-20,6.667687816325916e-23,0.000908911140861621,-2.9957991245566968e-30,4.349226602482802e-31,-1.946740010564871e-30,5.2075323080441e-20,5.2311057336271644e-30,-2.995803965475466e-30,0.0014558012577177643,6.106438199454084e-15,-3.320844525538847e-14,1.7011663864278246e-30,-1.1804722251182242e-30,4.345715186794094e-31,6.106438199454119e-15,0.00036535627287484615,8.48076318454251e-18,6.84967923239921e-29,5.365756899619853e-31,-1.9725153047683074e-31,-3.320844525538824e-14,8.480763184542541e-18,0.00036535627287480153,3.61372316446155e-29,-1.5162955291102586e-20,5.2075323080441e-20,1.948736441483229e-27,5.49599658901668e-29,3.576483084487558e-27,0.0007271825198628261
1656060246374380801,1156,1656060246333259106,odom,base_link_38,-0.9331102544971777,-0.1938761833298038,-2.639796994374725e-18,7.710784818091578e-19,8.044376764329554e-21,-0.06710150517637467,0.9977461540908413,0.00013359423555519027,-8.410704122641073e-18,3.796620170507297e-27,-2.742491214118143e-28,-2.3223397455431705e-27,5.223604219829654e-14,-8.410704174339861e-18,0.00013359423555588373,-4.861154164665636e-28,-6.294370108829185e-26,1.2745450275699049e-25,9.518114683188753e-13,3.461601772300119e-27,-6.815489269882865e-28,0.00015991235853236646,-5.3278621899672907e-14,-2.982846339827122e-13,1.3207767282852556e-29,4.686942105309138e-27,1.628045591858469e-26,-5.327862190629035e-14,8.095348217955088e-05,-9.060048675352838e-18,-2.3904414823590227e-29,-2.0353889769695912e-27,-3.145892088046746e-26,-2.9828463403565175e-13,-9.060050707067255e-18,8.095348217950307e-05,2.0587461939603827e-29,5.22360422512361e-14,9.518114683188753e-13,-3.0756679116913867e-29,3.0405633224053756e-29,6.197622321470524e-29,0.00015991341223595135,0.06274051545718562,-0.011891359243130558,-7.184816866644638e-19,-3.976811368415897e-18,-4.8232151984000695e-18,-4.183470489556873,0.0007580094609998988,-7.793764797903667e-17,-1.1474183535187108e-27,-4.585643955622864e-27,-8.249731474518297e-27,-2.3123779321747855e-14,-7.793764797643585e-17,0.0007580094610006747,1.9000291813157678e-28,1.2380250488775777e-27,1.0875972585395316e-27,8.320098610209251e-13,-1.2077393527451824e-25,-9.100451686991082e-27,0.00010727340575508661,-3.6648588855512337e-19,-2.069670558043668e-18,7.334571521992447e-27,-4.5856421797370246e-27,1.2379294799400282e-27,-3.664858885551665e-19,2.8308315037633947e-05,-6.018006870218808e-23,-7.585151581099216e-25,-6.467825770975458e-26,-3.572569716098017e-27,-2.0696705580432734e-18,-6.018006869944964e-23,2.8308315037633947e-05,8.46624847384747e-26,-2.312377932174794e-14,8.320098610209251e-13,7.338676152320161e-27,6.866545433636382e-26,8.465901517419288e-26,0.0006063785125623993
1656060246418227216,1157,1656060246369374037,odom,base_link_38,-0.9310243634137026,-0.19439426460202272,-7.138578006814331e-18,5.404972283379149e-18,3.4340102584067296e-18,-0.16015368916966863,0.987092090863535,0.0019393473500113622,2.40466381455301e-10,1.1864312033411742e-23,-1.3394472757083683e-23,-1.2637240236588855e-23,1.1202566534471806e-07,2.4046638145533826e-10,0.0019393480084977173,-3.365697046874113e-24,5.047220627996516e-24,3.917461756675181e-24,3.4332133079785367e-07,-3.9395146327087494e-23,-3.365682211349282e-24,0.0021688772615250074,-1.2734213781518368e-12,-4.086426407118006e-11,-7.653248105452402e-27,-7.212429580497804e-23,5.0472237051526836e-24,-1.2734213781518368e-12,0.001085412277375162,-2.8000816640230092e-15,9.565170807991756e-27,-6.557702360224886e-23,-9.317401343470707e-24,-4.086426407115359e-11,-2.8000817444003577e-15,0.001085412277285494,3.2363236244494413e-26,1.1202566534471806e-07,3.4332133079785367e-07,-6.845239818767946e-27,8.528053889521396e-27,6.514036837327541e-27,0.002326809625065666,0.05790184917172464,-0.005790969152138616,1.0056480425976152e-17,-7.867336820148143e-18,-2.1456333315127927e-18,-5.18864512321541,0.0009031388920444973,6.244502279314837e-23,8.340356789215058e-31,5.479208084917549e-29,1.447224576183872e-30,-7.492809313772991e-21,6.244502230011031e-23,0.0009031388920444972,-5.826265050022139e-30,1.696240707884704e-30,1.692590405849893e-30,6.569391613825349e-20,1.3532041760141884e-31,-4.842988128752405e-30,0.0014465695986865252,-1.5663036958001747e-15,-5.0262843179669216e-14,2.4552270988680528e-30,-6.2088306218503905e-31,2.1609653134450087e-33,-1.5663036958001934e-15,0.0003630480728149502,-3.32886388859133e-18,7.62293661027547e-30,-1.2227517886792717e-30,-8.108631376314485e-32,-5.026284317967056e-14,-3.328863888004016e-18,0.0003630480728148436,1.213942027182757e-29,-7.492809275907668e-21,6.569391623922768e-20,-2.4974181188626274e-28,-8.923045911029432e-28,-4.317736825416628e-28,0.0007225642170716322
1656060246462232018,1158,1656060246399924755,odom,base_link_38,-0.9326202242838334,-0.19438176930925818,-2.5275713799578866e-18,-9.373427663720254e-20,6.611149622428561e-20,-0.15106387320309816,0.9885240038627683,0.00013302203119031119,3.50467791427484e-16,1.270405957457914e-25,1.2715433657579153e-25,1.2795940662200891e-25,3.8456666664642895e-13,3.504677910138937e-16,0.00013302203119102893,-9.155366091137591e-28,6.28586095638617e-26,6.211644418231939e-26,9.120312452715008e-13,-6.235707700961786e-26,-9.278864597805038e-28,0.00015922572955354218,1.5149290892668745e-14,-1.4843748468967556e-13,2.7871825268435344e-29,-2.920621442567163e-26,-1.5932554139438122e-26,1.5149290892668745e-14,8.061019221054149e-05,1.055836367648173e-18,2.939481964027319e-29,-2.9951675735651696e-26,-1.6679946692220882e-26,-1.4843748470291045e-13,1.0558363676544839e-18,8.06101922105288e-05,3.6059702945078324e-29,3.845666664346707e-13,9.120312461185338e-13,3.73285781542605e-31,-1.3659207034609342e-31,-3.0789912423433544e-29,0.00015922676691548787,0.031677004980255934,0.0030067350457322894,3.698427581882788e-18,3.779697665696891e-18,1.883320685243069e-18,-3.4660901430435724,0.0007641363827467357,-3.663369886971685e-17,2.6387551404470547e-27,6.218728440871406e-27,1.9368581097315908e-27,-2.0634346619779832e-14,-3.6633698862659145e-17,0.000764136382747953,3.4878442308206435e-28,1.5742528823695245e-27,-1.3284802878044354e-27,8.730813046205503e-13,4.9443913036595004e-26,4.9819455523585965e-26,0.00010681566682757158,1.0432913496857269e-19,-1.030825896000432e-18,3.7233965350907455e-26,-2.8478413160607677e-27,1.4497469528287462e-26,1.0432913496857269e-19,2.819397134859084e-05,1.2638366556388955e-23,-7.889286698952613e-25,-1.294190481317859e-27,-1.353570089256783e-27,-1.0308258960006292e-18,1.2638366556051918e-23,2.819397134859084e-05,-4.0163312710408745e-25,-2.0634346619779936e-14,8.730813046205504e-13,3.7239605918664074e-26,3.8282288715281584e-26,1.1957179337639916e-26,0.0006112804596738012
1656060246510243961,1159,1656060246435946941,odom,base_link_38,-0.9323490663592497,-0.19466759566166333,-2.244024255887096e-18,6.549709108510373e-18,2.9239270150094956e-18,-0.1972170029436595,0.9803598593118349,0.0019341377931831653,3.3660491665976355e-11,1.2784178820342744e-24,-7.404906177331872e-24,-6.389235979634357e-24,3.118922757848686e-08,3.366049166595742e-11,0.0019341379725626032,-4.1314460536154625e-25,1.658024236651751e-24,8.952262097189243e-25,1.718712685661473e-07,2.774825207417576e-23,6.20428367482274e-24,0.002163312492325195,4.912213253005899e-12,-1.940051186554721e-11,3.1213940740920444e-26,1.6169740822297796e-23,1.6580227623587026e-24,4.912213253005899e-12,0.0010826295320584408,5.097753958922258e-15,1.2574841121989383e-26,-3.285901551638885e-23,8.952264218222097e-25,-1.940051186554721e-11,5.097753918283121e-15,0.001082629532039588,-1.027873553741677e-26,3.1189227578486834e-08,1.718712685661473e-07,1.663882151543686e-27,-9.193188422662228e-27,-6.643640247452528e-27,0.002320558289122657,0.007826271783973902,-0.004692076825884696,2.1687128123543615e-19,1.1312713496135936e-17,-2.009260065497999e-17,-2.6025331113341226,0.0009008208809770256,5.661895053106739e-23,-4.3120688618394714e-32,1.1447707273675366e-31,-2.5951344811407123e-31,-8.011090663445932e-21,5.661894619233241e-23,0.0009008208809770255,-2.7486804512060363e-30,7.225413137069557e-30,-9.971621553393295e-32,6.81868822974073e-20,5.5523196657804265e-31,9.45691989727302e-31,0.001442859688711436,6.009576794135554e-15,-2.3734492203128426e-14,-1.8164565077761195e-30,1.1438444310892686e-31,2.5262388119959326e-31,6.009576794135548e-15,0.0003621202325266461,6.027107084307554e-18,1.04158825748044e-29,-2.5916830710234813e-31,-9.536362662876957e-32,-2.373449220312837e-14,6.02710708460602e-18,0.00036212023252662383,-2.5571145985090653e-29,-8.011090587715285e-21,6.81868824993557e-20,-4.1716329959320687e-29,5.85660117826839e-29,-2.5581015061706017e-29,0.0007207099302262416
1656060246510252256,1160,1656060246466615915,odom,base_link_38,-0.9301519923494,-0.195419022785331,-1.6889684665823098e-18,-2.864239448252314e-19,1.0168616536840882e-18,-0.290034876777661,0.9570160762769698,0.00013297434767666058,1.8317237953697547e-17,-6.265413089512667e-26,6.282862438866051e-26,-3.299609258274826e-28,1.231549864055847e-13,1.831723797954694e-17,0.00013297434767670525,-1.5629082494408708e-28,-3.1334332877059835e-26,1.7977558351183485e-28,1.435258145378272e-13,3.2014245274093487e-26,-2.4848629066826054e-28,0.00015916851667262884,1.2003653564431156e-15,-9.363308813445928e-14,-3.507711992764894e-30,-1.5532491157392304e-26,7.928002981632016e-27,1.2003653564431156e-15,8.058159717113094e-05,-1.7143345797720117e-19,-2.4730603303667295e-29,-3.2664654728296626e-28,9.798006643037855e-29,-9.363308814107673e-14,-1.714334579645794e-19,8.058159717112584e-05,-8.278858589532908e-31,1.2315498651146382e-13,1.435258146437063e-13,8.321313143909969e-31,1.22419006824248e-28,-8.27882242838794e-31,0.000159169546626166,0.020010357248508612,9.597725247599749e-05,-1.8169628813271015e-18,-8.624097078120416e-19,2.4894300938054436e-18,-3.992025191223601,0.0007670931397400873,-1.1244090326271877e-17,-6.710529464085524e-28,2.2460732269779544e-29,6.398798323200759e-28,3.290921984174663e-14,-1.1244090293525144e-17,0.0007670931397402803,2.734937001166004e-29,-3.6100994592858474e-28,-2.7089394884043136e-28,1.647250277174202e-13,4.5949660494801256e-26,2.8060434761801236e-26,0.00010677753119961203,7.031557205107576e-21,-6.408335842548455e-19,2.5226537917380388e-26,2.4906968829224168e-26,1.3638549943347065e-26,7.031557205107576e-21,2.8184479188056097e-05,-2.0511874586225446e-24,1.4218816900549718e-26,7.636511116195862e-27,-1.2713092048523714e-26,-6.408335842547469e-19,-2.0511874596787968e-24,2.8184479188056097e-05,-2.402957996689207e-26,3.290921984091297e-14,1.6472502771658654e-13,2.3617356681188904e-26,1.420300454255917e-26,-2.4031442287633913e-26,0.0006136456277264331
1656060246554241499,1161,1656060246502840996,odom,base_link_38,-0.9292828822727243,-0.1960832702187317,6.006861472756634e-18,1.2744027035294164e-18,4.936144413134054e-19,-0.34783633729014163,0.9375552690164878,0.001944234998362204,3.1445144622637834e-11,-2.274538295540199e-24,-1.5326044251037773e-25,-1.7007204533713073e-24,5.5221851092059986e-08,3.1445144622585204e-11,0.0019442350308273373,1.4925550567104046e-24,3.621457393902717e-25,8.340058528396735e-25,9.065245222557293e-08,-2.6945907218855524e-24,1.4925570256965206e-24,0.0021754861383160894,2.2331376270486026e-12,-1.1931997553065947e-11,4.752953715731905e-28,1.3081632323690081e-23,3.621437600346704e-25,2.233137627050257e-12,0.0010887165308700322,1.4225422027871687e-15,1.5172429656944267e-26,1.1327374186707405e-23,8.34005841189396e-25,-1.19319975530858e-11,1.4225421825645868e-15,0.001088716530862681,1.3571649032167035e-26,5.5221851092059986e-08,9.065245222557293e-08,2.0905163930046914e-27,1.438375205865891e-27,7.625744615477763e-28,0.0023326747270702576,0.028678658346669068,-0.0013032042771725376,-2.01823251713948e-18,-6.345939503984995e-18,-1.639944575612205e-17,-3.3678012956129852,0.0009058945204757945,5.961896735298607e-23,-1.7033334462745594e-30,4.4149359283405115e-31,2.6615393056511315e-31,1.4902629728253812e-21,5.961896755020129e-23,0.0009058945204757946,3.758986178184008e-30,2.3347236641433215e-31,2.0987951533693108e-31,1.3070744128561034e-20,6.0605852715376204e-30,3.7701171552227646e-30,0.001450975447089056,2.762817508452186e-15,-1.4762162983926335e-14,7.561218450632505e-30,4.839095088151155e-31,2.334710646174755e-31,2.762817508452204e-15,0.0003641491417014061,1.700829258504758e-18,2.970171333612847e-31,2.661544324862777e-31,-2.2331404861753824e-31,-1.476216298392639e-14,1.7008292586539834e-18,0.0003641491417013973,3.58945357069086e-29,1.490263132175284e-21,1.307074397709974e-20,-6.031369451390349e-29,-9.203704971627751e-30,3.725177779729087e-29,0.0007247690985391655
1656060246573800414,1162,1656060246533210516,odom,base_link_38,-0.929182484453012,-0.19692826101877278,1.2362519576896956e-18,9.547155972476878e-19,-6.838854691067924e-19,-0.4494440723335127,0.8933084718305699,0.0001330220300649605,9.299809481762806e-17,-5.536770746506961e-28,-3.1960894912238804e-26,-8.811357821713517e-28,3.491919489903594e-13,9.299809461083291e-17,0.00013302203006498783,4.713585554824424e-28,1.4474250029724157e-27,-6.6295926417020185e-28,3.313732546333584e-13,-5.995973401683934e-28,4.711549957839874e-28,0.00015922571791042515,-6.535727370368083e-14,-1.1740420467257797e-13,5.047733002130791e-29,7.650147400781517e-27,1.1379626806286118e-27,-6.535727369044594e-14,8.061016922373144e-05,-4.5318684183967525e-18,-5.09832253709779e-30,-9.224992711095553e-28,-4.975728622909775e-28,-1.1740420465934308e-13,-4.531864366049837e-18,8.061016922372613e-05,2.634875775880836e-29,3.491919489903594e-13,3.3137325505687486e-13,-1.2520056361831276e-28,-2.3398892156230806e-30,-1.2319840827966596e-28,0.00015922676597822805,0.02468316431303167,-0.014149520070271652,-9.329755351949507e-19,-3.88235052164112e-18,1.281011929676993e-18,-4.51192035542794,0.0007596068483642674,-1.627773361439131e-17,5.598631260505082e-28,-2.287324558325478e-27,5.845100236093586e-28,-1.1915211711026884e-14,-1.62777335580167e-17,0.0007596068483645934,3.7399913454551472e-28,3.245484275697705e-27,-3.7349741830840597e-28,4.188305352446378e-13,5.598520217118403e-28,3.7398675512372634e-28,0.00010681564939752156,-4.455960041052065e-19,-8.098389865999321e-19,3.1814914010021524e-27,-3.902941573494966e-27,1.6298643480660155e-27,-4.455960041051572e-19,2.819390285783074e-05,-2.9331928221154343e-23,2.250360990191708e-25,-2.5197350992129566e-26,1.3251436520688798e-26,-8.098389865998335e-19,-2.9331928241304385e-23,2.8193902857830578e-05,4.0735631931436288e-25,-1.1915211711026916e-14,4.1883053524463774e-13,3.181491514446541e-27,1.8240945867184127e-26,-6.190028944218202e-27,0.0006076561702294024
1656060246614243994,1163,1656060246569387674,odom,base_link_38,-0.9287646898747708,-0.19807412237434507,-6.236095394859947e-18,-2.276951426672115e-18,-2.158501764850307e-19,-0.5329552624542202,0.8461434205986319,0.0019418866881143937,1.6106289436046172e-11,3.5831927439588215e-25,1.840492410042076e-25,1.3993565237996016e-25,1.5418603865413446e-07,1.6106289435932425e-11,0.00194188654057476,-4.358009755067464e-24,-2.0850240417847487e-24,-9.792888023340571e-25,1.6635771644568982e-08,3.583203416410682e-25,-3.0827790794366293e-23,0.0021726108169104795,-6.378786308478545e-12,-1.6483488654031937e-11,1.9352985921627668e-26,-2.295642997187633e-25,2.1489606184469997e-23,-6.378786308471928e-12,0.0010872790764099912,-5.630679089185846e-15,-9.645283519095461e-26,1.3992422193350346e-25,-9.792972875453542e-25,-1.6483488654058407e-11,-5.630679069081093e-15,0.0010872790763976263,-9.068906467151997e-26,1.5418603865413446e-07,1.6635771644568982e-08,1.5670142230456891e-26,4.866151589991577e-27,1.0861279451028378e-26,0.002329856615611945,0.03097440071082957,-0.009035353110292906,2.0773192931320473e-18,-1.1982410310251548e-17,1.3194709219865933e-17,-5.3042292601117715,0.0009046950776746941,5.612243201099042e-23,-1.1367648006341212e-30,-2.7949036009917537e-29,-2.200313492951486e-31,-3.92772219656077e-21,5.612243201099042e-23,0.000904695077674694,-7.343858883117812e-30,3.1095928923706623e-31,1.4324867960376168e-29,3.262555154594956e-20,-1.1254710095727985e-30,-7.344004583806603e-30,0.0014490585715634054,-7.871070551144005e-15,-2.033971440679663e-14,-1.5353493330753811e-30,-1.3457509170616153e-31,-3.120080247568793e-32,-7.871070551143956e-15,0.00036366995314322776,-6.714605700560962e-18,9.882492211883624e-30,-2.1916248705527707e-31,2.483481873492244e-31,-2.0339714406796453e-14,-6.714605700708647e-18,0.000363669953143213,8.620216122766442e-30,-3.927722278602304e-21,3.2625551495462464e-20,-2.4307377373229873e-29,-1.4380461203157028e-29,-9.042410698833594e-28,0.000723809266400683
1656060246662221602,1164,1656060246600835323,odom,base_link_38,-0.9287107479707963,-0.198428843901145,2.8575400410114053e-19,1.0137174226417036e-19,1.1702817271536351e-18,-0.5545327097393961,0.8321619276493504,0.00017790432938121154,4.062362983996418e-17,6.287309877177046e-26,4.6016005526487055e-28,-6.343751623114655e-26,5.395033234379168e-13,4.062362952977145e-17,0.00017790432938095957,6.415634513241851e-26,1.247742555802571e-25,9.005698486610105e-28,1.2424412487432857e-13,-3.188140607612675e-26,-3.082057791489596e-26,0.0002130844865269332,4.4692583716363356e-14,-1.3698900889451726e-13,2.3516711816525795e-29,6.823686413288324e-28,-3.4244727893818374e-26,4.46925837229808e-14,0.00010753957072291427,3.1922440723709168e-18,7.151974863247751e-30,1.5121457052881984e-26,8.957115953963502e-28,-1.3698900885481259e-13,3.1922440723709168e-18,0.00010753957072290473,1.745819755224129e-29,5.395033234379168e-13,1.2424412487432857e-13,3.124161486167313e-31,-1.57457835378409e-29,-1.220094834553865e-28,0.00021308552449758687,0.021765819290378956,0.00696107220022639,-1.2315224050576235e-18,3.479045471024636e-18,1.3071132744785843e-18,-2.9652996341671414,0.0007866431250350347,1.133136253446085e-16,-1.868657695551512e-27,1.3064623371974209e-27,-1.9570411947248966e-27,1.168968578550378e-13,1.1331362530844333e-16,0.0007866431250356788,-1.6184274431806736e-28,1.681217357202104e-27,1.1453236939052397e-27,8.702945498800365e-13,6.3218019889214e-26,-2.787211804698289e-26,0.00014272150476211205,5.486065154447265e-19,-1.6952689006719121e-18,-2.0490077475794432e-25,4.7170308896252203e-26,2.3137404398032343e-26,5.486065154447019e-19,3.717043056419134e-05,3.484023483399877e-23,-2.16693028708302e-25,-1.5372828045795515e-26,-3.4534425872940743e-26,-1.6952689006719121e-18,3.4840234833986736e-23,3.7170430564191395e-05,-1.7135047400479554e-27,1.1689685785524785e-13,8.702945498800398e-13,1.9366283317809274e-27,-9.870381403229028e-27,-1.7449108621980175e-27,0.0006292188429897281
1656060246706330309,1165,1656060246635939837,odom,base_link_38,-0.9286867198522458,-0.19962846367700368,5.535676707641739e-18,5.34480064331626e-18,2.829983642273159e-18,-0.605561562129675,0.7957984634761918,0.0019331359439301872,6.218270863306239e-11,-2.9730576489672487e-24,-2.8732457939455535e-24,-4.804297642588795e-24,1.1889425948169388e-07,6.218270863315643e-11,0.0019331359359080237,3.252769601455185e-24,2.8007163200333238e-24,6.2627140544575905e-24,1.1147246477318367e-07,-2.979509369816405e-24,2.425563237217451e-24,0.002108256798866045,4.6840618839864805e-12,-9.413401711515807e-12,4.86941087345332e-27,-2.8732457933694908e-24,2.7616134697369394e-23,4.684061883973246e-12,0.0010551081324318824,3.149204837762944e-15,7.519989483672811e-27,-3.127408787440551e-23,6.26273967792478e-24,-9.413401711515807e-12,3.149204883877397e-15,0.001055108132427117,1.4137860530024205e-26,1.1889425948169388e-07,1.1147246477318365e-07,6.487358016898692e-27,6.002504024805426e-27,1.413785972546628e-26,0.0023193566425776294,0.030591462986028738,-0.012106513595452291,-6.968775956818207e-18,1.0712120090868468e-17,-1.5527154033485542e-17,-3.570454864795736,0.0008778789721661706,5.236629526546863e-23,4.590486189046326e-30,6.573809290960349e-31,-1.562990180072396e-32,5.3858442624259334e-21,5.2366295364076246e-23,0.0008778789721661707,2.4403960034068216e-30,3.3774541763601134e-31,-4.405688187549608e-31,7.209281743687598e-20,4.811832931779087e-30,2.4397093329462754e-30,0.001406159684751776,5.519962118259002e-15,-1.1093284695787687e-14,-5.972907379438874e-29,6.57337388406459e-31,2.9485768007937497e-31,5.519962118258968e-15,0.00035296719186283046,3.615401995124645e-18,-8.524372058996374e-30,-2.672155286825411e-31,-4.400775999212188e-31,-1.10932846957877e-14,3.615401994877795e-18,0.00035296719186282504,-4.4875191347478494e-29,5.385844060477542e-21,7.209281723492759e-20,1.4022022208657678e-27,2.651239525474879e-27,-4.4863922898103065e-29,0.0007023563875689331
1656060246750260181,1166,1656060246667389393,odom,base_link_38,-0.928247879059706,-0.20042678170239617,-2.894737284259052e-18,-1.3309571298287501e-18,4.049334316245291e-20,-0.6324198110257877,0.7746258339495959,0.00017267104064838017,3.3178702664557288e-18,-2.3958150961416606e-28,2.577824319659228e-30,3.626038734874206e-30,6.135466771819325e-13,3.317870279380426e-18,0.00017267104064814772,-3.3059134233816194e-27,-5.112164000152778e-28,-1.598551346336391e-27,-2.5090554543428618e-14,1.311918634425516e-28,-2.4505814279637556e-27,0.00020680454793154312,-3.643737399044211e-14,-2.422920694847698e-13,6.0823433350269055e-30,2.5830325009294958e-30,1.0254161159078542e-28,-3.6437373983824666e-14,0.00010439961173572211,-5.2492199215288295e-18,-4.0496102935049186e-31,4.492585644630804e-30,-1.1719371081859647e-27,-2.422920694715349e-13,-5.249219921516208e-18,0.00010439961173569024,-2.9164708890663167e-31,6.13546676758416e-13,-2.5090554543428618e-14,-1.5626478794625445e-29,7.2366630917460725e-31,-2.9373212990925537e-31,0.00020680557835599158,0.03975624817155272,-0.006474978628337061,-6.862992259165348e-19,-1.0447337542388138e-17,-5.8524438307680064e-18,-3.761408509485248,0.000786680306198388,5.113309750332224e-17,8.811279432498328e-28,-1.317953360772721e-26,-1.0229902283515017e-26,1.8523499884407448e-13,5.11330974359434e-17,0.0007866803061989733,-3.933549232062815e-28,2.218517030281286e-27,1.679142230381737e-27,9.055262435794751e-13,-2.9650590750014465e-25,4.8145445584040836e-26,0.00013853488466149862,-4.2492035538693247e-19,-2.816528284564718e-18,1.6563523805100765e-24,-1.3179533069172483e-26,2.6224105881704207e-27,-4.249203553869818e-19,3.612381287262451e-05,-7.000864150871657e-23,9.58057298634685e-25,-8.362298990950654e-26,1.373617790284244e-26,-2.816528284564718e-18,-7.000864149094987e-23,3.6123812872624456e-05,8.384541073574332e-26,1.852349988449146e-13,9.055262435794878e-13,5.2155318284222114e-27,1.3087359322940488e-25,8.384379507388586e-26,0.0006292567629848879
1656060246750278956,1167,1656060246702740908,odom,base_link_38,-0.9278708005515102,-0.20099121280920035,-1.0535711300761639e-18,-1.170608063899875e-18,-4.908971971898025e-18,-0.670115476295749,0.7422568614899573,0.0019402532458220115,1.8518810042638013e-11,1.4256372976819368e-25,-3.3421292286368864e-25,5.032810114006206e-25,2.854984942948629e-07,1.8518810042667552e-11,0.001940252852648983,-3.1448686287456033e-24,7.85817795996798e-24,-1.1370741414628082e-23,1.341754025083301e-08,-3.1653284754274756e-24,-3.1449785683046657e-24,0.002123076475606459,-4.34667212580097e-13,-1.949588798737804e-11,-1.0231036217142016e-27,1.3201607002675926e-24,-9.140355625749147e-23,-4.346672125796834e-13,0.0010625175586609968,-5.907537842354326e-16,2.482137902177533e-26,-2.80543831361286e-24,4.2396000816655954e-23,-1.949588798740451e-11,-5.907537685130971e-16,0.0010625175586346388,2.337837471421754e-26,2.854984942948629e-07,1.341754025083301e-08,-6.764844552321028e-28,2.2028660995648196e-27,-2.499290918848611e-27,0.002327896801189033,0.01638662975527877,0.007885960992262969,2.175294234463585e-18,-1.0758686269894475e-17,4.639929523873047e-18,-2.8113074207747486,0.0008840550085321594,4.5281498892254246e-23,-5.739636826195462e-30,2.0885279949500537e-29,2.0736583769171887e-29,1.1535882506873087e-20,4.528149465212688e-23,0.0008840550085321597,5.141188968905413e-30,4.0727996756442237e-32,1.5149941421395235e-31,7.557186952205306e-20,-4.8236011924329635e-30,5.141212466899733e-30,0.0014160391265921409,-5.18800872255443e-16,-2.3269433321230648e-14,-6.558297811029051e-31,-4.380295080436877e-31,4.0043954535960514e-32,-5.188008722554372e-16,0.00035543503069020334,-6.863943521818297e-19,6.174238209032059e-30,-1.1770251231648301e-30,1.8472185541492246e-31,-2.3269433321230594e-14,-6.863943522686908e-19,0.0003554350306901727,-1.2102298773239149e-29,1.1535882506873087e-20,7.557186962302726e-20,5.0332135766528415e-30,7.080955760463027e-28,-1.2361577933766438e-29,0.0007072974155362681
1656060246794207845,1168,1656060246733938932,odom,base_link_38,-0.9282562652999734,-0.2009241650362661,1.8199575225346038e-19,-1.1118031238057358e-18,-1.5745568083725652e-19,-0.7334449885925934,0.679748812951086,0.00016805764091443057,4.304278421655965e-17,2.4004429912460986e-28,9.58492686903697e-28,-9.356888336267421e-28,3.284261872995366e-13,4.3042784113162074e-17,0.00016805764091428355,6.34371582029328e-26,-1.0437162878748807e-27,6.981762863992271e-28,1.3227460718390048e-13,2.4008184836383614e-28,-3.16883555148167e-26,0.0002012684583763292,-2.4310056399794974e-14,-1.106223204949255e-13,4.638756083757779e-30,2.127595322411199e-28,-1.044576766102564e-27,-2.431005639648625e-14,0.00010163155218775508,-1.868862087434401e-18,2.697356220040729e-32,-1.040009101059958e-27,2.769771930906377e-28,-1.1062232048830805e-13,-1.8688620874470226e-18,0.00010163155218774857,4.738333069382919e-31,3.284261872995366e-13,1.3227460707802136e-13,-4.452978209111286e-32,5.580059094084408e-31,4.7386070931873075e-31,0.0002012694987592505,0.01844159843963062,-0.004352315718889541,-2.626030056906911e-18,6.575234821766262e-18,-2.556307080942919e-18,-4.931874104179027,0.0007803831695482196,-7.149014551036716e-17,-1.5803042052174084e-27,4.665796039173163e-27,-2.3579126579325806e-27,-2.0458779567730402e-13,-7.149014551468646e-17,0.0007803831695486327,2.9715248573664153e-28,-6.738796117198031e-29,-6.265726832614387e-28,4.550266696299345e-13,7.051698616518264e-26,2.7258182466472085e-27,0.00013484414986541984,-2.634750244697196e-19,-1.2176851382385757e-18,-8.147711529558283e-25,5.0189301937886415e-27,-9.055617290766177e-27,-2.634750244697689e-19,3.520107327145233e-05,-1.570264625812575e-23,-3.406327993427616e-26,7.348538616129711e-26,-1.6181849619729577e-26,-1.2176851382385757e-18,-1.5702646252733147e-23,3.520107327145233e-05,-1.9272936584477974e-25,-2.0458779567730395e-13,4.550266696299346e-13,1.156897584005774e-26,-3.406517515360264e-26,1.405176129231471e-26,0.0006242261225406311
